image,height,width,type,original_dataset,scenario,airport,runway,time_to_landing,weather,night,time,slant_distance,along_track_distance,height_above_runway,lateral_path_angle,vertical_path_angle,yaw,pitch,roll,watermark_height,x_A,y_A,x_B,y_B,x_C,y_C,x_D,y_D,image_name,detected
images/-6-gPlw4x_8_046.png,1080,1920,real,REAL_Nominal,,KJFK,22L,32,,,,,,,,,,,,,1328,474,1339,474,1318,513,1347,513,-6-gPlw4x_8_046.png,True
images/-6-gPlw4x_8_049.png,1080,1920,real,REAL_Nominal,,KJFK,22L,26,,,,,,,,,,,,,577,458,590,458,606,502,568,503,-6-gPlw4x_8_049.png,True
images/-6-gPlw4x_8_053.png,1080,1920,real,REAL_Nominal,,KJFK,22L,18,,,,,,,,,,,,,1006,689,1019,689,988,735,1038,735,-6-gPlw4x_8_053.png,True
images/-6-gPlw4x_8_055.png,1080,1920,real,REAL_Nominal,,KJFK,22L,14,,,,,,,,,,,,,1342,473,1357,473,1303,538,1385,541,-6-gPlw4x_8_055.png,True
images/-6-gPlw4x_8_056.png,1080,1920,real,REAL_Nominal,,KJFK,22L,12,,,,,,,,,,,,,560,461,576,461,626,534,523,537,-6-gPlw4x_8_056.png,True
images/-6-gPlw4x_8_057.png,1080,1920,real,REAL_Nominal,,KJFK,22L,10,,,,,,,,,,,,,1344,461,1362,462,1278,546,1412,551,-6-gPlw4x_8_057.png,True
images/-6-gPlw4x_8_058.png,1080,1920,real,REAL_Nominal,,KJFK,22L,8,,,,,,,,,,,,,922,685,903,686,823,779,997,781,-6-gPlw4x_8_058.png,True
images/-6-gPlw4x_8_059.png,1080,1920,real,REAL_Nominal,,KJFK,22L,6,,,,,,,,,,,,,902,692,923,692,1088,844,746,854,-6-gPlw4x_8_059.png,True
images/-ctbTA6voZ4_002.png,720,1280,real,REAL_Nominal,,EGBB,15,60,,,,,,,,,,,,,585,289,592,289,587,317,601,317,-ctbTA6voZ4_002.png,True
images/-ctbTA6voZ4_010.png,720,1280,real,REAL_Nominal,,EGBB,15,44,,,,,,,,,,,,,726,309,734,309,714,348,733,348,-ctbTA6voZ4_010.png,True
images/-ctbTA6voZ4_014.png,720,1280,real,REAL_Nominal,,EGBB,15,36,,,,,,,,,,,,,547,270,555,270,538,315,563,316,-ctbTA6voZ4_014.png,True
images/-ctbTA6voZ4_017.png,720,1280,real,REAL_Nominal,,EGBB,15,30,,,,,,,,,,,,,645,280,655,281,628,329,659,331,-ctbTA6voZ4_017.png,True
images/-ctbTA6voZ4_020.png,720,1280,real,REAL_Nominal,,EGBB,15,24,,,,,,,,,,,,,628,247,617,248,654,305,613,307,-ctbTA6voZ4_020.png,True
images/-ctbTA6voZ4_022.png,720,1280,real,REAL_Nominal,,EGBB,15,20,,,,,,,,,,,,,611,275,622,275,656,342,603,343,-ctbTA6voZ4_022.png,True
images/-ctbTA6voZ4_024.png,720,1280,real,REAL_Nominal,,EGBB,15,16,,,,,,,,,,,,,612,255,623,255,591,331,666,331,-ctbTA6voZ4_024.png,True
images/-ctbTA6voZ4_025.png,720,1280,real,REAL_Nominal,,EGBB,15,14,,,,,,,,,,,,,651,259,663,260,609,342,703,349,-ctbTA6voZ4_025.png,True
images/-ctbTA6voZ4_026.png,720,1280,real,REAL_Nominal,,EGBB,15,12,,,,,,,,,,,,,620,252,630,253,558,345,686,356,-ctbTA6voZ4_026.png,True
images/-ctbTA6voZ4_027.png,720,1280,real,REAL_Nominal,,EGBB,15,10,,,,,,,,,,,,,642,278,654,278,556,397,753,400,-ctbTA6voZ4_027.png,True
images/-ctbTA6voZ4_028.png,720,1280,real,REAL_Nominal,,EGBB,15,8,,,,,,,,,,,,,618,266,630,266,385,461,811,470,-ctbTA6voZ4_028.png,True
images/-KOP9Kub9t8_065.png,1080,1902,real,REAL_Nominal,,VHHH,25R,50,,,,,,,,,,,,,875,517,885,517,871,547,888,547,-KOP9Kub9t8_065.png,False
images/-KOP9Kub9t8_070.png,1080,1902,real,REAL_Nominal,,VHHH,25R,40,,,,,,,,,,,,,1008,521,1019,521,1004,553,1027,553,-KOP9Kub9t8_070.png,False
images/-KOP9Kub9t8_073.png,1080,1902,real,REAL_Nominal,,VHHH,25R,34,,,,,,,,,,,,,1000,524,1012,524,1020,560,993,561,-KOP9Kub9t8_073.png,False
images/-KOP9Kub9t8_076.png,1080,1902,real,REAL_Nominal,,VHHH,25R,28,,,,,,,,,,,,,998,523,1009,523,1024,564,990,565,-KOP9Kub9t8_076.png,False
images/-KOP9Kub9t8_079.png,1080,1902,real,REAL_Nominal,,VHHH,25R,22,,,,,,,,,,,,,1016,501,1002,502,1034,549,988,550,-KOP9Kub9t8_079.png,True
images/-KOP9Kub9t8_081.png,1080,1902,real,REAL_Nominal,,VHHH,25R,18,,,,,,,,,,,,,1022,510,1008,511,1048,563,988,565,-KOP9Kub9t8_081.png,True
images/-KOP9Kub9t8_083.png,1080,1902,real,REAL_Nominal,,VHHH,25R,14,,,,,,,,,,,,,884,513,901,514,845,576,933,581,-KOP9Kub9t8_083.png,True
images/-KOP9Kub9t8_084.png,1080,1902,real,REAL_Nominal,,VHHH,25R,12,,,,,,,,,,,,,1007,498,992,499,1062,572,947,580,-KOP9Kub9t8_084.png,True
images/-KOP9Kub9t8_085.png,1080,1902,real,REAL_Nominal,,VHHH,25R,10,,,,,,,,,,,,,989,511,1006,511,1082,608,912,614,-KOP9Kub9t8_085.png,True
images/-KOP9Kub9t8_086.png,1080,1902,real,REAL_Nominal,,VHHH,25R,8,,,,,,,,,,,,,893,507,909,508,750,664,1065,670,-KOP9Kub9t8_086.png,True
images/0CLSYZPFbTg_060.png,1080,1920,real,REAL_Nominal,,LTAI,36C,108,,,,,,,,,,,,,943,442,951,442,942,470,952,471,0CLSYZPFbTg_060.png,False
images/0CLSYZPFbTg_084.png,1080,1920,real,REAL_Nominal,,LTAI,36C,60,,,,,,,,,,,,,907,451,920,451,903,494,925,494,0CLSYZPFbTg_084.png,True
images/0CLSYZPFbTg_093.png,1080,1920,real,REAL_Nominal,,LTAI,36C,42,,,,,,,,,,,,,977,415,964,416,958,470,985,470,0CLSYZPFbTg_093.png,True
images/0CLSYZPFbTg_101.png,1080,1920,real,REAL_Nominal,,LTAI,36C,26,,,,,,,,,,,,,965,475,978,476,947,545,996,545,0CLSYZPFbTg_101.png,True
images/0CLSYZPFbTg_103.png,1080,1920,real,REAL_Nominal,,LTAI,36C,22,,,,,,,,,,,,,924,423,939,423,898,503,959,505,0CLSYZPFbTg_103.png,True
images/0CLSYZPFbTg_105.png,1080,1920,real,REAL_Nominal,,LTAI,36C,18,,,,,,,,,,,,,965,393,981,393,934,486,1014,486,0CLSYZPFbTg_105.png,True
images/0CLSYZPFbTg_107.png,1080,1920,real,REAL_Nominal,,LTAI,36C,14,,,,,,,,,,,,,937,368,954,369,884,479,999,481,0CLSYZPFbTg_107.png,True
images/0CLSYZPFbTg_108.png,1080,1920,real,REAL_Nominal,,LTAI,36C,12,,,,,,,,,,,,,991,385,972,386,903,510,1050,513,0CLSYZPFbTg_108.png,True
images/0CLSYZPFbTg_109.png,1080,1920,real,REAL_Nominal,,LTAI,36C,10,,,,,,,,,,,,,911,380,932,380,1031,534,820,541,0CLSYZPFbTg_109.png,True
images/0CLSYZPFbTg_110.png,1080,1920,real,REAL_Nominal,,LTAI,36C,8,,,,,,,,,,,,,915,353,935,354,1105,565,747,572,0CLSYZPFbTg_110.png,True
images/0CLSYZPFbTg_111.png,1080,1920,real,REAL_Nominal,,LTAI,36C,6,,,,,,,,,,,,,977,387,1004,387,1650,915,437,942,0CLSYZPFbTg_111.png,True
images/0fiHJrxfJPE_082.png,2160,3840,real,REAL_Nominal,,KSFO,28R,8,rain,,,,,,,,,,,,1820,931,1787,932,1957,1102,1669,1111,0fiHJrxfJPE_082.png,True
images/0P-HJgLkZLk_061.png,1080,1920,real,REAL_Nominal,,ESSA,26,76,,,,,,,,,,,,,1299,255,1310,255,1293,292,1312,292,0P-HJgLkZLk_061.png,True
images/0P-HJgLkZLk_069.png,1080,1920,real,REAL_Nominal,,ESSA,26,60,,,,,,,,,,,,,1242,321,1256,321,1237,362,1260,362,0P-HJgLkZLk_069.png,True
images/0P-HJgLkZLk_077.png,1080,1920,real,REAL_Nominal,,ESSA,26,44,,,,,,,,,,,,,770,307,788,307,763,359,795,360,0P-HJgLkZLk_077.png,True
images/0P-HJgLkZLk_082.png,1080,1920,real,REAL_Nominal,,ESSA,26,34,,,,,,,,,,,,,757,277,775,277,745,340,787,341,0P-HJgLkZLk_082.png,True
images/0P-HJgLkZLk_085.png,1080,1920,real,REAL_Nominal,,ESSA,26,28,,,,,,,,,,,,,769,285,789,285,753,356,803,356,0P-HJgLkZLk_085.png,True
images/0P-HJgLkZLk_088.png,1080,1920,real,REAL_Nominal,,ESSA,26,22,,,,,,,,,,,,,1095,302,1119,303,1068,382,1134,385,0P-HJgLkZLk_088.png,True
images/0P-HJgLkZLk_091.png,1080,1920,real,REAL_Nominal,,ESSA,26,16,,,,,,,,,,,,,1106,270,1131,271,1061,369,1158,373,0P-HJgLkZLk_091.png,True
images/0P-HJgLkZLk_093.png,1080,1920,real,REAL_Nominal,,ESSA,26,12,,,,,,,,,,,,,767,274,794,274,711,399,852,401,0P-HJgLkZLk_093.png,True
images/0P-HJgLkZLk_095.png,1080,1920,real,REAL_Nominal,,ESSA,26,8,,,,,,,,,,,,,1102,250,1132,251,984,423,1235,427,0P-HJgLkZLk_095.png,True
images/0P-HJgLkZLk_096.png,1080,1920,real,REAL_Nominal,,ESSA,26,6,,,,,,,,,,,,,1103,264,1136,265,909,502,1321,506,0P-HJgLkZLk_096.png,True
images/0P-HJgLkZLk_097.png,1080,1920,real,REAL_Nominal,,ESSA,26,4,,,,,,,,,,,,,1092,245,1130,245,1729,787,532,789,0P-HJgLkZLk_097.png,True
images/17MUtbOfdNQ_043.png,2160,3840,real,REAL_Nominal,,LICJ,7,124,,,,,,,,,,,,,1994,941,2003,941,1994,970,2007,970,17MUtbOfdNQ_043.png,False
images/17MUtbOfdNQ_061.png,2160,3840,real,REAL_Nominal,,LICJ,7,88,,,,,,,,,,,,,1743,932,1754,932,1756,973,1740,974,17MUtbOfdNQ_061.png,False
images/17MUtbOfdNQ_073.png,2160,3840,real,REAL_Nominal,,LICJ,7,64,,,,,,,,,,,,,2073,876,2085,876,2058,930,2080,932,17MUtbOfdNQ_073.png,False
images/17MUtbOfdNQ_082.png,2160,3840,real,REAL_Nominal,,LICJ,7,46,,,,,,,,,,,,,2125,891,2141,891,2105,954,2139,956,17MUtbOfdNQ_082.png,True
images/17MUtbOfdNQ_088.png,2160,3840,real,REAL_Nominal,,LICJ,7,34,,,,,,,,,,,,,1741,865,1759,865,1785,936,1740,938,17MUtbOfdNQ_088.png,True
images/17MUtbOfdNQ_092.png,2160,3840,real,REAL_Nominal,,LICJ,7,26,,,,,,,,,,,,,1744,884,1722,885,1776,967,1714,970,17MUtbOfdNQ_092.png,True
images/17MUtbOfdNQ_095.png,2160,3840,real,REAL_Nominal,,LICJ,7,20,,,,,,,,,,,,,1742,844,1717,845,1781,934,1697,937,17MUtbOfdNQ_095.png,True
images/17MUtbOfdNQ_098.png,2160,3840,real,REAL_Nominal,,LICJ,7,14,,,,,,,,,,,,,1759,845,1728,846,1811,950,1691,953,17MUtbOfdNQ_098.png,True
images/17MUtbOfdNQ_100.png,2160,3840,real,REAL_Nominal,,LICJ,7,10,,,,,,,,,,,,,1769,842,1731,843,1848,959,1672,965,17MUtbOfdNQ_100.png,True
images/17MUtbOfdNQ_101.png,2160,3840,real,REAL_Nominal,,LICJ,7,8,,,,,,,,,,,,,1770,849,1730,850,1876,980,1650,988,17MUtbOfdNQ_101.png,True
images/17MUtbOfdNQ_102.png,2160,3840,real,REAL_Nominal,,LICJ,7,6,,,,,,,,,,,,,1776,857,1733,858,1925,1017,1611,1028,17MUtbOfdNQ_102.png,True
images/17MUtbOfdNQ_103.png,2160,3840,real,REAL_Nominal,,LICJ,7,4,,,,,,,,,,,,,2056,851,2105,853,1803,1081,2326,1095,17MUtbOfdNQ_103.png,True
images/17MUtbOfdNQ_104.png,2160,3840,real,REAL_Nominal,,LICJ,7,2,,,,,,,,,,,,,1790,847,1728,849,2555,1358,1035,1426,17MUtbOfdNQ_104.png,True
images/3cHEZgOrbJY_062.png,1080,1920,real,REAL_Nominal,,EPWA,33,66,,,,,,,,,,,,,1786,336,1794,337,1782,365,1797,365,3cHEZgOrbJY_062.png,True
images/3cHEZgOrbJY_072.png,1080,1920,real,REAL_Nominal,,EPWA,33,46,,,,,,,,,,,,,139,321,150,321,133,357,154,357,3cHEZgOrbJY_072.png,True
images/3cHEZgOrbJY_076.png,1080,1920,real,REAL_Nominal,,EPWA,33,38,,,,,,,,,,,,,1763,316,1774,316,1755,356,1782,358,3cHEZgOrbJY_076.png,False
images/3cHEZgOrbJY_078.png,1080,1920,real,REAL_Nominal,,EPWA,33,34,,,,,,,,,,,,,1762,273,1774,274,1754,319,1785,321,3cHEZgOrbJY_078.png,True
images/3cHEZgOrbJY_080.png,1080,1920,real,REAL_Nominal,,EPWA,33,30,,,,,,,,,,,,,1764,305,1777,306,1754,353,1790,355,3cHEZgOrbJY_080.png,True
images/3cHEZgOrbJY_083.png,1080,1920,real,REAL_Nominal,,EPWA,33,24,,,,,,,,,,,,,1759,298,1774,298,1746,354,1796,356,3cHEZgOrbJY_083.png,True
images/3cHEZgOrbJY_085.png,1080,1920,real,REAL_Nominal,,EPWA,33,20,,,,,,,,,,,,,147,297,163,297,118,362,182,362,3cHEZgOrbJY_085.png,True
images/3cHEZgOrbJY_086.png,1080,1920,real,REAL_Nominal,,EPWA,33,18,,,,,,,,,,,,,147,299,163,299,189,367,114,371,3cHEZgOrbJY_086.png,True
images/3cHEZgOrbJY_087.png,1080,1920,real,REAL_Nominal,,EPWA,33,16,,,,,,,,,,,,,144,314,160,314,191,392,101,393,3cHEZgOrbJY_087.png,True
images/3cHEZgOrbJY_088.png,1080,1920,real,REAL_Nominal,,EPWA,33,14,,,,,,,,,,,,,145,297,160,297,206,385,92,388,3cHEZgOrbJY_088.png,True
images/3cHEZgOrbJY_089.png,1080,1920,real,REAL_Nominal,,EPWA,33,12,,,,,,,,,,,,,1760,294,1777,295,1688,393,1842,405,3cHEZgOrbJY_089.png,True
images/3cHEZgOrbJY_090.png,1080,1920,real,REAL_Nominal,,EPWA,33,10,,,,,,,,,,,,,1758,273,1773,274,1649,405,1882,411,3cHEZgOrbJY_090.png,True
images/3eAoz0P3qto_052.png,2160,3840,real,REAL_Nominal,,EYVI,1,112,,,,,,,,,,,,,1512,814,1522,814,1509,844,1522,845,3eAoz0P3qto_052.png,False
images/3eAoz0P3qto_059.png,2160,3840,real,REAL_Nominal,,EYVI,1,98,,,,,,,,,,,,,2341,809,2330,810,2330,843,2346,843,3eAoz0P3qto_059.png,False
images/3eAoz0P3qto_067.png,2160,3840,real,REAL_Nominal,,EYVI,1,82,,,,,,,,,,,,,2331,830,2343,830,2350,868,2331,869,3eAoz0P3qto_067.png,True
images/3eAoz0P3qto_075.png,2160,3840,real,REAL_Nominal,,EYVI,1,66,,,,,,,,,,,,,1480,838,1495,838,1474,880,1496,880,3eAoz0P3qto_075.png,True
images/3eAoz0P3qto_079.png,2160,3840,real,REAL_Nominal,,EYVI,1,58,,,,,,,,,,,,,1459,833,1475,833,1452,881,1477,881,3eAoz0P3qto_079.png,True
images/3eAoz0P3qto_082.png,2160,3840,real,REAL_Nominal,,EYVI,1,52,,,,,,,,,,,,,1447,837,1464,838,1438,887,1466,888,3eAoz0P3qto_082.png,True
images/3eAoz0P3qto_087.png,2160,3840,real,REAL_Nominal,,EYVI,1,42,,,,,,,,,,,,,1437,816,1455,817,1424,871,1460,872,3eAoz0P3qto_087.png,True
images/3eAoz0P3qto_089.png,2160,3840,real,REAL_Nominal,,EYVI,1,38,,,,,,,,,,,,,2409,821,2388,822,2424,880,2384,881,3eAoz0P3qto_089.png,True
images/3eAoz0P3qto_092.png,2160,3840,real,REAL_Nominal,,EYVI,1,32,,,,,,,,,,,,,1429,834,1451,835,1410,900,1457,902,3eAoz0P3qto_092.png,True
images/3eAoz0P3qto_095.png,2160,3840,real,REAL_Nominal,,EYVI,1,26,,,,,,,,,,,,,2406,819,2382,820,2433,896,2371,899,3eAoz0P3qto_095.png,True
images/3eAoz0P3qto_098.png,2160,3840,real,REAL_Nominal,,EYVI,1,20,,,,,,,,,,,,,1436,796,1463,796,1404,890,1490,891,3eAoz0P3qto_098.png,True
images/3eAoz0P3qto_100.png,2160,3840,real,REAL_Nominal,,EYVI,1,16,,,,,,,,,,,,,2386,805,2414,805,2462,914,2346,916,3eAoz0P3qto_100.png,True
images/3eAoz0P3qto_101.png,2160,3840,real,REAL_Nominal,,EYVI,1,14,,,,,,,,,,,,,1426,809,1451,810,1359,933,1499,936,3eAoz0P3qto_101.png,True
images/3eAoz0P3qto_102.png,2160,3840,real,REAL_Nominal,,EYVI,1,12,,,,,,,,,,,,,1432,800,1465,802,1346,941,1523,948,3eAoz0P3qto_102.png,True
images/3eAoz0P3qto_103.png,2160,3840,real,REAL_Nominal,,EYVI,1,10,,,,,,,,,,,,,2406,796,2371,798,2523,964,2282,972,3eAoz0P3qto_103.png,True
images/3eAoz0P3qto_104.png,2160,3840,real,REAL_Nominal,,EYVI,1,8,,,,,,,,,,,,,1435,786,1469,788,1247,1013,1627,1023,3eAoz0P3qto_104.png,True
images/3eAoz0P3qto_105.png,2160,3840,real,REAL_Nominal,,EYVI,1,6,,,,,,,,,,,,,1436,772,1466,774,976,1201,1859,1212,3eAoz0P3qto_105.png,True
images/3gyD-xaX7SM_004.png,1080,1920,real,REAL_Nominal,,EBBR,25L,24,,,,,,,,,,,,,981,521,998,521,951,605,1021,606,3gyD-xaX7SM_004.png,True
images/3gyD-xaX7SM_007.png,1080,1920,real,REAL_Nominal,,EBBR,25L,18,,,,,,,,,,,,,982,541,999,541,937,646,1038,646,3gyD-xaX7SM_007.png,True
images/3gyD-xaX7SM_009.png,1080,1920,real,REAL_Nominal,,EBBR,25L,14,,,,,,,,,,,,,975,542,994,542,899,672,1051,674,3gyD-xaX7SM_009.png,True
images/3gyD-xaX7SM_010.png,1080,1920,real,REAL_Nominal,,EBBR,25L,12,,,,,,,,,,,,,976,536,997,537,864,685,1069,693,3gyD-xaX7SM_010.png,True
images/3gyD-xaX7SM_011.png,1080,1920,real,REAL_Nominal,,EBBR,25L,10,,,,,,,,,,,,,940,540,921,541,1099,741,789,744,3gyD-xaX7SM_011.png,True
images/3gyD-xaX7SM_012.png,1080,1920,real,REAL_Nominal,,EBBR,25L,8,,,,,,,,,,,,,910,556,934,556,604,907,1243,908,3gyD-xaX7SM_012.png,True
images/3s1eHvzkxxI_054.png,1080,1920,real,REAL_Nominal,,KMIA,9,94,,,,,,,,,,,,,840,516,848,516,838,549,852,549,3s1eHvzkxxI_054.png,False
images/3s1eHvzkxxI_073.png,1080,1920,real,REAL_Nominal,,KMIA,9,56,,,,,,,,,,,,,1055,491,1068,491,1049,537,1073,537,3s1eHvzkxxI_073.png,False
images/3s1eHvzkxxI_080.png,1080,1920,real,REAL_Nominal,,KMIA,9,42,,,,,,,,,,,,,851,481,863,481,844,533,871,533,3s1eHvzkxxI_080.png,True
images/3s1eHvzkxxI_085.png,1080,1920,real,REAL_Nominal,,KMIA,9,32,,,,,,,,,,,,,838,488,854,488,828,549,864,549,3s1eHvzkxxI_085.png,True
images/3s1eHvzkxxI_089.png,1080,1920,real,REAL_Nominal,,KMIA,9,24,,,,,,,,,,,,,861,466,876,466,843,538,894,538,3s1eHvzkxxI_089.png,True
images/3s1eHvzkxxI_092.png,1080,1920,real,REAL_Nominal,,KMIA,9,18,,,,,,,,,,,,,1065,472,1050,473,1025,555,1096,555,3s1eHvzkxxI_092.png,True
images/3s1eHvzkxxI_094.png,1080,1920,real,REAL_Nominal,,KMIA,9,14,,,,,,,,,,,,,1049,443,1065,443,1007,539,1106,540,3s1eHvzkxxI_094.png,True
images/3s1eHvzkxxI_095.png,1080,1920,real,REAL_Nominal,,KMIA,9,12,,,,,,,,,,,,,1057,465,1073,465,1000,572,1124,572,3s1eHvzkxxI_095.png,True
images/3s1eHvzkxxI_096.png,1080,1920,real,REAL_Nominal,,KMIA,9,10,,,,,,,,,,,,,846,469,861,469,769,596,939,597,3s1eHvzkxxI_096.png,True
images/3s1eHvzkxxI_097.png,1080,1920,real,REAL_Nominal,,KMIA,9,8,,,,,,,,,,,,,845,454,863,454,719,614,974,621,3s1eHvzkxxI_097.png,True
images/3s1eHvzkxxI_098.png,1080,1920,real,REAL_Nominal,,KMIA,9,6,,,,,,,,,,,,,1051,460,1075,460,1345,738,806,743,3s1eHvzkxxI_098.png,True
images/3VrwyzGRCCc_032.png,2160,3840,real,REAL_Nominal,,LGKR,34,70,,,,,,,,,,,,,2364,1012,2375,1013,2319,1047,2334,1047,3VrwyzGRCCc_032.png,False
images/3VrwyzGRCCc_043.png,2160,3840,real,REAL_Nominal,,LGKR,34,48,,,,,,,,,,,,,2300,966,2312,966,2304,1015,2282,1016,3VrwyzGRCCc_043.png,False
images/3VrwyzGRCCc_047.png,2160,3840,real,REAL_Nominal,,LGKR,34,40,,,,,,,,,,,,,1560,955,1575,955,1552,1010,1578,1011,3VrwyzGRCCc_047.png,False
images/3VrwyzGRCCc_050.png,2160,3840,real,REAL_Nominal,,LGKR,34,34,,,,,,,,,,,,,1651,972,1667,973,1633,1031,1666,1034,3VrwyzGRCCc_050.png,True
images/3VrwyzGRCCc_052.png,2160,3840,real,REAL_Nominal,,LGKR,34,30,,,,,,,,,,,,,1729,973,1746,973,1715,1039,1752,1039,3VrwyzGRCCc_052.png,True
images/3VrwyzGRCCc_054.png,2160,3840,real,REAL_Nominal,,LGKR,34,26,,,,,,,,,,,,,1712,952,1731,952,1701,1025,1747,1025,3VrwyzGRCCc_054.png,True
images/3VrwyzGRCCc_057.png,2160,3840,real,REAL_Nominal,,LGKR,34,20,,,,,,,,,,,,,1673,942,1693,942,1654,1022,1720,1024,3VrwyzGRCCc_057.png,True
images/3VrwyzGRCCc_059.png,2160,3840,real,REAL_Nominal,,LGKR,34,16,,,,,,,,,,,,,1662,949,1685,949,1645,1042,1731,1042,3VrwyzGRCCc_059.png,True
images/3VrwyzGRCCc_060.png,2160,3840,real,REAL_Nominal,,LGKR,34,14,,,,,,,,,,,,,1680,960,1654,961,1742,1059,1639,1063,3VrwyzGRCCc_060.png,True
images/3VrwyzGRCCc_061.png,2160,3840,real,REAL_Nominal,,LGKR,34,12,,,,,,,,,,,,,1641,954,1615,955,1718,1062,1590,1069,3VrwyzGRCCc_061.png,True
images/3VrwyzGRCCc_062.png,2160,3840,real,REAL_Nominal,,LGKR,34,10,,,,,,,,,,,,,2204,963,2230,963,2119,1090,2291,1090,3VrwyzGRCCc_062.png,True
images/3VrwyzGRCCc_063.png,2160,3840,real,REAL_Nominal,,LGKR,34,8,,,,,,,,,,,,,1629,918,1659,920,1505,1074,1763,1086,3VrwyzGRCCc_063.png,True
images/3VrwyzGRCCc_064.png,2160,3840,real,REAL_Nominal,,LGKR,34,6,,,,,,,,,,,,,1627,897,1659,899,1341,1117,1863,1150,3VrwyzGRCCc_064.png,True
images/4bYcfALapdE_049.png,2160,3840,real,REAL_Nominal,,KJFK,4R,32,,,,,,,,,,,,,920,890,895,895,951,960,893,970,4bYcfALapdE_049.png,True
images/4bYcfALapdE_053.png,2160,3840,real,REAL_Nominal,,KJFK,4R,24,,,,,,,,,,,,,950,874,920,878,990,961,910,971,4bYcfALapdE_053.png,True
images/4bYcfALapdE_056.png,2160,3840,real,REAL_Nominal,,KJFK,4R,18,,,,,,,,,,,,,926,862,895,868,991,964,877,981,4bYcfALapdE_056.png,True
images/4bYcfALapdE_058.png,2160,3840,real,REAL_Nominal,,KJFK,4R,14,,,,,,,,,,,,,928,862,893,868,1017,979,862,1004,4bYcfALapdE_058.png,True
images/4bYcfALapdE_059.png,2160,3840,real,REAL_Nominal,,KJFK,4R,12,,,,,,,,,,,,,2914,861,2952,867,2808,995,3001,1021,4bYcfALapdE_059.png,True
images/4bYcfALapdE_060.png,2160,3840,real,REAL_Nominal,,KJFK,4R,10,,,,,,,,,,,,,933,838,894,843,1067,995,818,1026,4bYcfALapdE_060.png,True
images/4bYcfALapdE_061.png,2160,3840,real,REAL_Nominal,,KJFK,4R,8,,,,,,,,,,,,,2879,803,2918,809,2684,998,3039,1045,4bYcfALapdE_061.png,True
images/4bYcfALapdE_062.png,2160,3840,real,REAL_Nominal,,KJFK,4R,6,,,,,,,,,,,,,2849,806,2893,810,2521,1093,3138,1157,4bYcfALapdE_062.png,True
images/4PpjjbbhDbo_021.png,720,1280,real,REAL_Nominal,,SOCA,8,16,,,,,,,,,,,,,574,323,577,323,562,354,585,354,4PpjjbbhDbo_021.png,False
images/4PpjjbbhDbo_023.png,720,1280,real,REAL_Nominal,,SOCA,8,12,,,,,,,,,,,,,576,301,579,301,553,347,599,347,4PpjjbbhDbo_023.png,True
images/4PpjjbbhDbo_024.png,720,1280,real,REAL_Nominal,,SOCA,8,10,,,,,,,,,,,,,572,326,576,326,535,389,611,390,4PpjjbbhDbo_024.png,True
images/4PpjjbbhDbo_025.png,720,1280,real,REAL_Nominal,,SOCA,8,8,,,,,,,,,,,,,704,308,710,308,771,404,640,405,4PpjjbbhDbo_025.png,True
images/4s4zQFW4g7o_053.png,720,1280,real,REAL_Nominal,,LTAI,36C,40,,,,,,,,,,,,,740,300,746,300,736,326,748,326,4s4zQFW4g7o_053.png,True
images/4s4zQFW4g7o_056.png,720,1280,real,REAL_Nominal,,LTAI,36C,34,,,,,,,,,,,,,519,298,524,298,518,327,532,327,4s4zQFW4g7o_056.png,True
images/4s4zQFW4g7o_059.png,720,1280,real,REAL_Nominal,,LTAI,36C,28,,,,,,,,,,,,,514,299,522,299,509,332,528,332,4s4zQFW4g7o_059.png,True
images/4s4zQFW4g7o_062.png,720,1280,real,REAL_Nominal,,LTAI,36C,22,,,,,,,,,,,,,747,304,754,304,737,341,762,341,4s4zQFW4g7o_062.png,True
images/4s4zQFW4g7o_064.png,720,1280,real,REAL_Nominal,,LTAI,36C,18,,,,,,,,,,,,,758,307,764,307,739,350,773,351,4s4zQFW4g7o_064.png,True
images/4s4zQFW4g7o_066.png,720,1280,real,REAL_Nominal,,LTAI,36C,14,,,,,,,,,,,,,762,282,769,282,735,336,783,336,4s4zQFW4g7o_066.png,True
images/4s4zQFW4g7o_067.png,720,1280,real,REAL_Nominal,,LTAI,36C,12,,,,,,,,,,,,,516,286,524,286,495,347,555,347,4s4zQFW4g7o_067.png,True
images/4s4zQFW4g7o_068.png,720,1280,real,REAL_Nominal,,LTAI,36C,10,,,,,,,,,,,,,750,289,758,289,791,363,709,364,4s4zQFW4g7o_068.png,True
images/4s4zQFW4g7o_069.png,720,1280,real,REAL_Nominal,,LTAI,36C,8,,,,,,,,,,,,,745,281,754,281,812,379,682,380,4s4zQFW4g7o_069.png,True
images/4s4zQFW4g7o_070.png,720,1280,real,REAL_Nominal,,LTAI,36C,6,,,,,,,,,,,,,737,296,749,296,904,464,611,482,4s4zQFW4g7o_070.png,True
images/4yx-1LC3Q4o_082.png,1080,1920,real,REAL_Nominal,,CYVR,26R,82,,,,,,,,,,,,,1128,444,1133,444,1127,459,1134,459,4yx-1LC3Q4o_082.png,False
images/4yx-1LC3Q4o_092.png,1080,1920,real,REAL_Nominal,,CYVR,26R,62,,,,,,,,,,,,,1127,459,1133,459,1124,478,1134,478,4yx-1LC3Q4o_092.png,False
images/4yx-1LC3Q4o_099.png,1080,1920,real,REAL_Nominal,,CYVR,26R,48,,,,,,,,,,,,,1126,444,1134,444,1123,465,1137,465,4yx-1LC3Q4o_099.png,False
images/4yx-1LC3Q4o_104.png,1080,1920,real,REAL_Nominal,,CYVR,26R,38,,,,,,,,,,,,,1125,436,1132,436,1118,462,1138,462,4yx-1LC3Q4o_104.png,True
images/4yx-1LC3Q4o_108.png,1080,1920,real,REAL_Nominal,,CYVR,26R,30,,,,,,,,,,,,,1117,449,1126,449,1109,478,1135,478,4yx-1LC3Q4o_108.png,True
images/4yx-1LC3Q4o_111.png,1080,1920,real,REAL_Nominal,,CYVR,26R,24,,,,,,,,,,,,,1119,428,1130,428,1107,461,1141,461,4yx-1LC3Q4o_111.png,True
images/4yx-1LC3Q4o_114.png,1080,1920,real,REAL_Nominal,,CYVR,26R,18,,,,,,,,,,,,,794,439,806,439,776,479,826,479,4yx-1LC3Q4o_114.png,True
images/4yx-1LC3Q4o_116.png,1080,1920,real,REAL_Nominal,,CYVR,26R,14,,,,,,,,,,,,,791,430,804,430,833,478,763,479,4yx-1LC3Q4o_116.png,True
images/4yx-1LC3Q4o_117.png,1080,1920,real,REAL_Nominal,,CYVR,26R,12,,,,,,,,,,,,,803,428,788,429,839,484,753,485,4yx-1LC3Q4o_117.png,True
images/4yx-1LC3Q4o_118.png,1080,1920,real,REAL_Nominal,,CYVR,26R,10,,,,,,,,,,,,,1127,419,1112,420,1177,487,1063,488,4yx-1LC3Q4o_118.png,True
images/4yx-1LC3Q4o_119.png,1080,1920,real,REAL_Nominal,,CYVR,26R,8,,,,,,,,,,,,,791,426,808,427,714,514,887,515,4yx-1LC3Q4o_119.png,True
images/4yx-1LC3Q4o_120.png,1080,1920,real,REAL_Nominal,,CYVR,26R,6,,,,,,,,,,,,,1103,431,1119,431,946,565,1276,586,4yx-1LC3Q4o_120.png,True
images/55wJ5LI8FtQ_023.png,1080,1920,real,REAL_Nominal,,EDDM,8R,32,,,,,,,,,,,,,1084,443,1097,443,1114,495,1073,496,55wJ5LI8FtQ_023.png,False
images/55wJ5LI8FtQ_027.png,1080,1920,real,REAL_Nominal,,EDDM,8R,24,,,,,,,,,,,,,833,486,846,486,813,543,866,544,55wJ5LI8FtQ_027.png,True
images/55wJ5LI8FtQ_030.png,1080,1920,real,REAL_Nominal,,EDDM,8R,18,,,,,,,,,,,,,1079,496,1094,496,1045,567,1123,567,55wJ5LI8FtQ_030.png,True
images/55wJ5LI8FtQ_032.png,1080,1920,real,REAL_Nominal,,EDDM,8R,14,,,,,,,,,,,,,1092,462,1108,463,1157,548,1048,549,55wJ5LI8FtQ_032.png,True
images/55wJ5LI8FtQ_033.png,1080,1920,real,REAL_Nominal,,EDDM,8R,12,,,,,,,,,,,,,822,474,835,474,755,569,894,572,55wJ5LI8FtQ_033.png,True
images/55wJ5LI8FtQ_034.png,1080,1920,real,REAL_Nominal,,EDDM,8R,10,,,,,,,,,,,,,826,445,810,446,723,558,903,561,55wJ5LI8FtQ_034.png,True
images/55wJ5LI8FtQ_035.png,1080,1920,real,REAL_Nominal,,EDDM,8R,8,,,,,,,,,,,,,822,459,838,459,688,600,960,602,55wJ5LI8FtQ_035.png,True
images/55wJ5LI8FtQ_036.png,1080,1920,real,REAL_Nominal,,EDDM,8R,6,,,,,,,,,,,,,1081,453,1100,453,1393,683,827,696,55wJ5LI8FtQ_036.png,True
images/5_3EgHWf0sg_027.png,1080,1920,real,REAL_Nominal,,LFSB,15,40,,,,,,,,,,,,,1159,514,1168,514,1179,548,1157,549,5_3EgHWf0sg_027.png,False
images/5_3EgHWf0sg_032.png,1080,1920,real,REAL_Nominal,,LFSB,15,30,,,,,,,,,,,,,756,534,766,534,744,574,774,575,5_3EgHWf0sg_032.png,True
images/5_3EgHWf0sg_035.png,1080,1920,real,REAL_Nominal,,LFSB,15,24,,,,,,,,,,,,,744,504,754,504,728,550,767,551,5_3EgHWf0sg_035.png,True
images/5_3EgHWf0sg_038.png,1080,1920,real,REAL_Nominal,,LFSB,15,18,,,,,,,,,,,,,736,487,748,488,709,538,764,541,5_3EgHWf0sg_038.png,True
images/5_3EgHWf0sg_040.png,1080,1920,real,REAL_Nominal,,LFSB,15,14,,,,,,,,,,,,,726,516,739,516,692,574,768,575,5_3EgHWf0sg_040.png,True
images/5_3EgHWf0sg_041.png,1080,1920,real,REAL_Nominal,,LFSB,15,12,,,,,,,,,,,,,711,540,722,540,667,604,760,608,5_3EgHWf0sg_041.png,True
images/5_3EgHWf0sg_042.png,1080,1920,real,REAL_Nominal,,LFSB,15,10,,,,,,,,,,,,,1198,514,1210,514,1266,592,1146,595,5_3EgHWf0sg_042.png,True
images/5_3EgHWf0sg_043.png,1080,1920,real,REAL_Nominal,,LFSB,15,8,,,,,,,,,,,,,714,489,727,489,637,584,804,586,5_3EgHWf0sg_043.png,True
images/5_3EgHWf0sg_044.png,1080,1920,real,REAL_Nominal,,LFSB,15,6,,,,,,,,,,,,,1198,514,1210,514,1343,638,1059,644,5_3EgHWf0sg_044.png,True
images/6BviLkwIr7U_052.png,1080,1920,real,REAL_Nominal,,EGLL,27,56,,,,,,,,,,,,,1249,280,1256,280,1259,317,1247,318,6BviLkwIr7U_052.png,False
images/6BviLkwIr7U_058.png,1080,1920,real,REAL_Nominal,,EGLL,27,44,,,,,,,,,,,,,1254,253,1262,253,1250,296,1265,296,6BviLkwIr7U_058.png,False
images/6BviLkwIr7U_062.png,1080,1920,real,REAL_Nominal,,EGLL,27,36,,,,,,,,,,,,,1263,278,1272,278,1260,327,1278,327,6BviLkwIr7U_062.png,False
images/6BviLkwIr7U_066.png,1080,1920,real,REAL_Nominal,,EGLL,27,28,,,,,,,,,,,,,1217,230,1228,230,1241,288,1218,289,6BviLkwIr7U_066.png,True
images/6BviLkwIr7U_069.png,1080,1920,real,REAL_Nominal,,EGLL,27,22,,,,,,,,,,,,,1164,254,1177,254,1157,324,1187,324,6BviLkwIr7U_069.png,True
images/6BviLkwIr7U_071.png,1080,1920,real,REAL_Nominal,,EGLL,27,18,,,,,,,,,,,,,1170,252,1185,252,1163,331,1201,331,6BviLkwIr7U_071.png,True
images/6BviLkwIr7U_073.png,1080,1920,real,REAL_Nominal,,EGLL,27,14,,,,,,,,,,,,,1137,194,1153,194,1118,289,1170,290,6BviLkwIr7U_073.png,True
images/6BviLkwIr7U_074.png,1080,1920,real,REAL_Nominal,,EGLL,27,12,,,,,,,,,,,,,749,198,764,198,723,302,787,303,6BviLkwIr7U_074.png,True
images/6BviLkwIr7U_075.png,1080,1920,real,REAL_Nominal,,EGLL,27,10,,,,,,,,,,,,,758,218,740,219,801,327,718,333,6BviLkwIr7U_075.png,True
images/6BviLkwIr7U_076.png,1080,1920,real,REAL_Nominal,,EGLL,27,8,,,,,,,,,,,,,1130,226,1149,226,1196,352,1079,353,6BviLkwIr7U_076.png,True
images/6BviLkwIr7U_077.png,1080,1920,real,REAL_Nominal,,EGLL,27,6,,,,,,,,,,,,,1128,218,1149,218,1029,377,1237,379,6BviLkwIr7U_077.png,True
images/6DIvC4eF640_069.png,1080,1902,real,REAL_Nominal,,LSZH,34,38,,,,,,,,,,,,,1127,534,1138,535,1122,565,1140,566,6DIvC4eF640_069.png,False
images/6DIvC4eF640_073.png,1080,1902,real,REAL_Nominal,,LSZH,34,30,,,,,,,,,,,,,1111,530,1120,531,1101,565,1125,565,6DIvC4eF640_073.png,False
images/6DIvC4eF640_076.png,1080,1902,real,REAL_Nominal,,LSZH,34,24,,,,,,,,,,,,,790,529,800,529,812,568,781,570,6DIvC4eF640_076.png,True
images/6DIvC4eF640_078.png,1080,1902,real,REAL_Nominal,,LSZH,34,20,,,,,,,,,,,,,1105,529,1113,529,1087,574,1124,577,6DIvC4eF640_078.png,False
images/6DIvC4eF640_080.png,1080,1902,real,REAL_Nominal,,LSZH,34,16,,,,,,,,,,,,,1110,522,1119,522,1089,572,1132,575,6DIvC4eF640_080.png,True
images/6DIvC4eF640_082.png,1080,1902,real,REAL_Nominal,,LSZH,34,12,,,,,,,,,,,,,782,521,773,522,811,578,754,582,6DIvC4eF640_082.png,True
images/6DIvC4eF640_084.png,1080,1902,real,REAL_Nominal,,LSZH,34,8,,,,,,,,,,,,,1124,516,1134,517,1078,590,1172,592,6DIvC4eF640_084.png,True
images/6DIvC4eF640_085.png,1080,1902,real,REAL_Nominal,,LSZH,34,6,,,,,,,,,,,,,780,520,772,521,853,609,716,616,6DIvC4eF640_085.png,True
images/6DIvC4eF640_086.png,1080,1902,real,REAL_Nominal,,LSZH,34,4,,,,,,,,,,,,,1118,518,1129,519,987,645,1237,661,6DIvC4eF640_086.png,True
images/6EEiOw5WgWM_056.png,1080,1920,real,REAL_Nominal,,LCPH,11,52,,,,,,,,,,,,,937,240,946,240,927,277,958,277,6EEiOw5WgWM_056.png,False
images/6EEiOw5WgWM_061.png,1080,1920,real,REAL_Nominal,,LCPH,11,42,,,,,,,,,,,,,987,410,973,411,951,476,1008,476,6EEiOw5WgWM_061.png,True
images/6EEiOw5WgWM_063.png,1080,1920,real,REAL_Nominal,,LCPH,11,38,,,,,,,,,,,,,928,254,941,254,908,300,954,301,6EEiOw5WgWM_063.png,True
images/6EEiOw5WgWM_066.png,1080,1920,real,REAL_Nominal,,LCPH,11,32,,,,,,,,,,,,,960,265,973,265,998,319,938,320,6EEiOw5WgWM_066.png,True
images/6EEiOw5WgWM_069.png,1080,1920,real,REAL_Nominal,,LCPH,11,26,,,,,,,,,,,,,982,263,995,263,943,331,1034,332,6EEiOw5WgWM_069.png,True
images/6EEiOw5WgWM_071.png,1080,1920,real,REAL_Nominal,,LCPH,11,22,,,,,,,,,,,,,940,254,955,254,884,339,1017,341,6EEiOw5WgWM_071.png,True
images/6EEiOw5WgWM_072.png,1080,1920,real,REAL_Nominal,,LCPH,11,20,,,,,,,,,,,,,948,262,963,262,865,364,1041,371,6EEiOw5WgWM_072.png,True
images/6EEiOw5WgWM_073.png,1080,1920,real,REAL_Nominal,,LCPH,11,18,,,,,,,,,,,,,969,259,956,260,1100,401,837,410,6EEiOw5WgWM_073.png,True
images/82ui7mLMp5o_025.png,1080,1920,real,REAL_Nominal,,LFPG,26L,30,,,,,,,,,,,,,830,595,842,595,822,629,850,629,82ui7mLMp5o_025.png,True
images/82ui7mLMp5o_028.png,1080,1920,real,REAL_Nominal,,LFPG,26L,24,,,,,,,,,,,,,825,595,839,595,851,634,814,635,82ui7mLMp5o_028.png,True
images/82ui7mLMp5o_029.png,1080,1920,real,REAL_Nominal,,LFPG,26L,22,,,,,,,,,,,,,422,354,440,354,407,403,456,403,82ui7mLMp5o_029.png,True
images/82ui7mLMp5o_031.png,1080,1920,real,REAL_Nominal,,LFPG,26L,18,,,,,,,,,,,,,424,347,442,347,463,403,403,405,82ui7mLMp5o_031.png,True
images/82ui7mLMp5o_033.png,1080,1920,real,REAL_Nominal,,LFPG,26L,14,,,,,,,,,,,,,1477,351,1497,351,1444,417,1527,420,82ui7mLMp5o_033.png,True
images/82ui7mLMp5o_034.png,1080,1920,real,REAL_Nominal,,LFPG,26L,12,,,,,,,,,,,,,1482,345,1503,345,1440,420,1540,421,82ui7mLMp5o_034.png,True
images/82ui7mLMp5o_035.png,1080,1920,real,REAL_Nominal,,LFPG,26L,10,,,,,,,,,,,,,409,355,428,355,493,439,362,448,82ui7mLMp5o_035.png,True
images/82ui7mLMp5o_036.png,1080,1920,real,REAL_Nominal,,LFPG,26L,8,,,,,,,,,,,,,1070,579,1089,579,1000,674,1170,676,82ui7mLMp5o_036.png,True
images/82ui7mLMp5o_037.png,1080,1920,real,REAL_Nominal,,LFPG,26L,6,,,,,,,,,,,,,1070,579,1090,580,927,731,1249,737,82ui7mLMp5o_037.png,True
images/8v80itbM1hE_056.png,1080,1920,real,REAL_Nominal,,EGLL,27,42,,,,,,,,,,,,,1079,370,1088,370,1073,408,1088,408,8v80itbM1hE_056.png,False
images/8v80itbM1hE_060.png,1080,1920,real,REAL_Nominal,,EGLL,27,34,,,,,,,,,,,,,1096,345,1104,346,1086,388,1106,390,8v80itbM1hE_060.png,False
images/8v80itbM1hE_063.png,1080,1920,real,REAL_Nominal,,EGLL,27,28,,,,,,,,,,,,,831,351,841,351,851,399,828,400,8v80itbM1hE_063.png,False
images/8v80itbM1hE_066.png,1080,1920,real,REAL_Nominal,,EGLL,27,22,,,,,,,,,,,,,1074,341,1086,341,1063,400,1092,401,8v80itbM1hE_066.png,False
images/8v80itbM1hE_068.png,1080,1920,real,REAL_Nominal,,EGLL,27,18,,,,,,,,,,,,,848,325,833,326,862,394,823,396,8v80itbM1hE_068.png,False
images/8v80itbM1hE_069.png,1080,1920,real,REAL_Nominal,,EGLL,27,16,,,,,,,,,,,,,1078,329,1092,330,1058,405,1105,408,8v80itbM1hE_069.png,True
images/8v80itbM1hE_070.png,1080,1920,real,REAL_Nominal,,EGLL,27,14,,,,,,,,,,,,,844,332,857,332,884,411,826,416,8v80itbM1hE_070.png,True
images/8v80itbM1hE_071.png,1080,1920,real,REAL_Nominal,,EGLL,27,12,,,,,,,,,,,,,850,335,836,336,886,423,810,430,8v80itbM1hE_071.png,True
images/8v80itbM1hE_072.png,1080,1920,real,REAL_Nominal,,EGLL,27,10,,,,,,,,,,,,,865,329,850,330,912,434,804,439,8v80itbM1hE_072.png,True
images/8v80itbM1hE_073.png,1080,1920,real,REAL_Nominal,,EGLL,27,8,,,,,,,,,,,,,865,332,849,333,955,472,761,485,8v80itbM1hE_073.png,True
images/973IjAYcowc_024.png,2160,3840,real,REAL_Nominal,,MUVR,6,150,,,,,,,,,,,,,1635,949,1645,949,1635,980,1648,980,973IjAYcowc_024.png,False
images/973IjAYcowc_047.png,2160,3840,real,REAL_Nominal,,MUVR,6,104,,,,,,,,,,,,,1495,942,1507,942,1492,985,1511,985,973IjAYcowc_047.png,True
images/973IjAYcowc_064.png,2160,3840,real,REAL_Nominal,,MUVR,6,70,,,,,,,,,,,,,1427,1015,1412,1016,1435,1071,1408,1073,973IjAYcowc_064.png,True
images/973IjAYcowc_072.png,2160,3840,real,REAL_Nominal,,MUVR,6,54,,,,,,,,,,,,,1413,1049,1429,1049,1441,1112,1408,1113,973IjAYcowc_072.png,True
images/973IjAYcowc_076.png,2160,3840,real,REAL_Nominal,,MUVR,6,46,,,,,,,,,,,,,1431,1018,1415,1019,1444,1092,1409,1093,973IjAYcowc_076.png,True
images/973IjAYcowc_079.png,2160,3840,real,REAL_Nominal,,MUVR,6,40,,,,,,,,,,,,,2397,1012,2414,1013,2381,1092,2427,1093,973IjAYcowc_079.png,True
images/973IjAYcowc_084.png,2160,3840,real,REAL_Nominal,,MUVR,6,30,,,,,,,,,,,,,1443,998,1422,999,1469,1089,1405,1094,973IjAYcowc_084.png,True
images/973IjAYcowc_086.png,2160,3840,real,REAL_Nominal,,MUVR,6,26,,,,,,,,,,,,,2403,990,2425,991,2371,1090,2448,1096,973IjAYcowc_086.png,True
images/973IjAYcowc_088.png,2160,3840,real,REAL_Nominal,,MUVR,6,22,,,,,,,,,,,,,1460,1009,1439,1011,1502,1113,1411,1119,973IjAYcowc_088.png,True
images/973IjAYcowc_091.png,2160,3840,real,REAL_Nominal,,MUVR,6,16,,,,,,,,,,,,,1436,1006,1416,1007,1500,1137,1361,1148,973IjAYcowc_091.png,True
images/973IjAYcowc_092.png,2160,3840,real,REAL_Nominal,,MUVR,6,14,,,,,,,,,,,,,2411,997,2435,999,2337,1144,2506,1156,973IjAYcowc_092.png,True
images/973IjAYcowc_093.png,2160,3840,real,REAL_Nominal,,MUVR,6,12,,,,,,,,,,,,,1434,1008,1405,1010,1525,1171,1310,1185,973IjAYcowc_093.png,True
images/973IjAYcowc_094.png,2160,3840,real,REAL_Nominal,,MUVR,6,10,,,,,,,,,,,,,2391,994,2417,996,2261,1191,2555,1210,973IjAYcowc_094.png,True
images/973IjAYcowc_095.png,2160,3840,real,REAL_Nominal,,MUVR,6,8,,,,,,,,,,,,,1474,980,1448,981,1700,1244,1223,1274,973IjAYcowc_095.png,True
images/98X64I_4ljk_067.png,2160,3840,real,REAL_Nominal,,LPPT,3,68,,,,,,,,,,,,,2055,930,2066,930,2050,974,2071,974,98X64I_4ljk_067.png,False
images/98X64I_4ljk_076.png,2160,3840,real,REAL_Nominal,,LPPT,3,50,,,,,,,,,,,,,1817,919,1805,920,1823,973,1799,974,98X64I_4ljk_076.png,False
images/98X64I_4ljk_082.png,2160,3840,real,REAL_Nominal,,LPPT,3,38,,,,,,,,,,,,,1846,946,1860,946,1839,1009,1870,1009,98X64I_4ljk_082.png,False
images/98X64I_4ljk_086.png,2160,3840,real,REAL_Nominal,,LPPT,3,30,,,,,,,,,,,,,1945,896,1962,896,1934,971,1974,971,98X64I_4ljk_086.png,True
images/98X64I_4ljk_089.png,2160,3840,real,REAL_Nominal,,LPPT,3,24,,,,,,,,,,,,,1974,890,1991,890,1950,974,2004,974,98X64I_4ljk_089.png,True
images/98X64I_4ljk_092.png,2160,3840,real,REAL_Nominal,,LPPT,3,18,,,,,,,,,,,,,1959,877,1980,877,2001,974,1923,975,98X64I_4ljk_092.png,True
images/98X64I_4ljk_094.png,2160,3840,real,REAL_Nominal,,LPPT,3,14,,,,,,,,,,,,,1995,871,2017,871,1940,988,2050,988,98X64I_4ljk_094.png,True
images/98X64I_4ljk_095.png,2160,3840,real,REAL_Nominal,,LPPT,3,12,,,,,,,,,,,,,1986,879,2009,879,2054,1011,1915,1013,98X64I_4ljk_095.png,True
images/98X64I_4ljk_096.png,2160,3840,real,REAL_Nominal,,LPPT,3,10,,,,,,,,,,,,,2004,874,2031,876,1894,1022,2085,1035,98X64I_4ljk_096.png,True
images/98X64I_4ljk_097.png,2160,3840,real,REAL_Nominal,,LPPT,3,8,,,,,,,,,,,,,1988,894,2020,894,1840,1088,2139,1088,98X64I_4ljk_097.png,True
images/98X64I_4ljk_098.png,2160,3840,real,REAL_Nominal,,LPPT,3,6,,,,,,,,,,,,,1991,886,1955,887,2332,1213,1641,1245,98X64I_4ljk_098.png,True
images/9BhOdwZd-wg_052.png,2160,3840,real,REAL_Nominal,,LFPG,8R,34,,,,,,,,,,,,,2914,921,2945,924,2885,997,2958,1006,9BhOdwZd-wg_052.png,False
images/9BhOdwZd-wg_054.png,2160,3840,real,REAL_Nominal,,LFPG,8R,30,,,,,,,,,,,,,1744,1273,1717,1274,1770,1349,1702,1351,9BhOdwZd-wg_054.png,False
images/9BhOdwZd-wg_057.png,2160,3840,real,REAL_Nominal,,LFPG,8R,24,,,,,,,,,,,,,845,672,814,674,885,761,788,768,9BhOdwZd-wg_057.png,True
images/9BhOdwZd-wg_060.png,2160,3840,real,REAL_Nominal,,LFPG,8R,18,,,,,,,,,,,,,3008,674,3045,676,2941,785,3086,799,9BhOdwZd-wg_060.png,True
images/9BhOdwZd-wg_061.png,2160,3840,real,REAL_Nominal,,LFPG,8R,16,,,,,,,,,,,,,2909,900,2948,905,2823,1030,2995,1055,9BhOdwZd-wg_061.png,True
images/9BhOdwZd-wg_062.png,2160,3840,real,REAL_Nominal,,LFPG,8R,14,,,,,,,,,,,,,829,656,789,659,938,798,717,822,9BhOdwZd-wg_062.png,True
images/9BhOdwZd-wg_063.png,2160,3840,real,REAL_Nominal,,LFPG,8R,12,,,,,,,,,,,,,831,649,786,652,977,819,683,852,9BhOdwZd-wg_063.png,True
images/9BhOdwZd-wg_064.png,2160,3840,real,REAL_Nominal,,LFPG,8R,10,,,,,,,,,,,,,827,634,781,638,1055,859,610,911,9BhOdwZd-wg_064.png,True
images/9BhOdwZd-wg_065.png,2160,3840,real,REAL_Nominal,,LFPG,8R,8,,,,,,,,,,,,,3002,635,3057,638,2545,1003,3443,1145,9BhOdwZd-wg_065.png,True
images/9EMO6_2ilgk_022.png,1080,1920,real,REAL_Nominal,,KMIA,9,40,,,,,,,,,,,,,853,485,864,485,846,536,872,536,9EMO6_2ilgk_022.png,True
images/9EMO6_2ilgk_027.png,1080,1920,real,REAL_Nominal,,KMIA,9,30,,,,,,,,,,,,,838,487,852,487,828,548,864,548,9EMO6_2ilgk_027.png,True
images/9EMO6_2ilgk_031.png,1080,1920,real,REAL_Nominal,,KMIA,9,22,,,,,,,,,,,,,1052,465,1065,465,1033,536,1084,536,9EMO6_2ilgk_031.png,True
images/9EMO6_2ilgk_034.png,1080,1920,real,REAL_Nominal,,KMIA,9,16,,,,,,,,,,,,,1065,477,1049,478,1096,560,1024,561,9EMO6_2ilgk_034.png,True
images/9EMO6_2ilgk_036.png,1080,1920,real,REAL_Nominal,,KMIA,9,12,,,,,,,,,,,,,1051,445,1068,445,1007,543,1110,544,9EMO6_2ilgk_036.png,True
images/9EMO6_2ilgk_037.png,1080,1920,real,REAL_Nominal,,KMIA,9,10,,,,,,,,,,,,,1058,469,1074,469,1000,579,1129,579,9EMO6_2ilgk_037.png,True
images/9EMO6_2ilgk_038.png,1080,1920,real,REAL_Nominal,,KMIA,9,8,,,,,,,,,,,,,1058,469,1073,469,1155,601,977,603,9EMO6_2ilgk_038.png,True
images/9EMO6_2ilgk_039.png,1080,1920,real,REAL_Nominal,,KMIA,9,6,,,,,,,,,,,,,843,453,860,453,701,622,983,632,9EMO6_2ilgk_039.png,True
images/9EMO6_2ilgk_040.png,1080,1920,real,REAL_Nominal,,KMIA,9,4,,,,,,,,,,,,,1054,462,1075,462,1408,792,747,796,9EMO6_2ilgk_040.png,True
images/9qkS6LJy3YE_109.png,2160,3840,real,REAL_Nominal,,SBGR,27L,44,,,,,,,,,,,,,1912,1101,1923,1102,1904,1146,1927,1146,9qkS6LJy3YE_109.png,True
images/9qkS6LJy3YE_114.png,2160,3840,real,REAL_Nominal,,SBGR,27L,34,,,,,,,,,,,,,1936,1086,1950,1086,1926,1138,1956,1138,9qkS6LJy3YE_114.png,True
images/9qkS6LJy3YE_118.png,2160,3840,real,REAL_Nominal,,SBGR,27L,26,,,,,,,,,,,,,1933,1076,1948,1076,1917,1141,1958,1142,9qkS6LJy3YE_118.png,True
images/9qkS6LJy3YE_122.png,2160,3840,real,REAL_Nominal,,SBGR,27L,18,,,,,,,,,,,,,1905,1075,1887,1076,1935,1154,1870,1158,9qkS6LJy3YE_122.png,True
images/9qkS6LJy3YE_124.png,2160,3840,real,REAL_Nominal,,SBGR,27L,14,,,,,,,,,,,,,1940,1062,1958,1062,1898,1156,1991,1159,9qkS6LJy3YE_124.png,True
images/9qkS6LJy3YE_125.png,2160,3840,real,REAL_Nominal,,SBGR,27L,12,,,,,,,,,,,,,1908,1074,1887,1075,1962,1183,1845,1188,9qkS6LJy3YE_125.png,True
images/9qkS6LJy3YE_126.png,2160,3840,real,REAL_Nominal,,SBGR,27L,10,,,,,,,,,,,,,1929,1066,1948,1067,1857,1193,2013,1201,9qkS6LJy3YE_126.png,True
images/9qkS6LJy3YE_127.png,2160,3840,real,REAL_Nominal,,SBGR,27L,8,,,,,,,,,,,,,1888,1060,1910,1060,2021,1228,1780,1238,9qkS6LJy3YE_127.png,True
images/9qkS6LJy3YE_128.png,2160,3840,real,REAL_Nominal,,SBGR,27L,6,,,,,,,,,,,,,1905,1054,1883,1055,2155,1348,1632,1368,9qkS6LJy3YE_128.png,True
images/9xG0a8TUdXg_015.png,1080,1920,real,REAL_Nominal,,LIRF,16L,32,,,,,,,,,,,,,1129,292,1143,292,1123,331,1148,331,9xG0a8TUdXg_015.png,True
images/9xG0a8TUdXg_019.png,1080,1920,real,REAL_Nominal,,LIRF,16L,24,,,,,,,,,,,,,1132,368,1149,368,1115,430,1162,430,9xG0a8TUdXg_019.png,True
images/9xG0a8TUdXg_022.png,1080,1920,real,REAL_Nominal,,LIRF,16L,18,,,,,,,,,,,,,1138,352,1156,353,1098,436,1182,437,9xG0a8TUdXg_022.png,True
images/9xG0a8TUdXg_024.png,1080,1920,real,REAL_Nominal,,LIRF,16L,14,,,,,,,,,,,,,768,300,785,301,716,395,835,400,9xG0a8TUdXg_024.png,True
images/9xG0a8TUdXg_026.png,1080,1920,real,REAL_Nominal,,LIRF,16L,10,,,,,,,,,,,,,761,359,781,359,673,481,873,483,9xG0a8TUdXg_026.png,True
images/9xG0a8TUdXg_027.png,1080,1920,real,REAL_Nominal,,LIRF,16L,8,,,,,,,,,,,,,811,341,831,341,670,500,972,511,9xG0a8TUdXg_027.png,True
images/9xG0a8TUdXg_028.png,1080,1920,real,REAL_Nominal,,LIRF,16L,6,,,,,,,,,,,,,837,370,814,371,529,653,1143,653,9xG0a8TUdXg_028.png,True
images/9z0kkkEjb0g_055.png,1080,1920,real,REAL_Nominal,,EDDF,7R,56,,,,,,,,,,,,,886,423,899,423,882,473,904,473,9z0kkkEjb0g_055.png,True
images/9z0kkkEjb0g_061.png,1080,1920,real,REAL_Nominal,,EDDF,7R,44,,,,,,,,,,,,,909,416,896,417,916,473,889,474,9z0kkkEjb0g_061.png,False
images/9z0kkkEjb0g_065.png,1080,1920,real,REAL_Nominal,,EDDF,7R,36,,,,,,,,,,,,,879,447,892,447,865,509,899,510,9z0kkkEjb0g_065.png,True
images/9z0kkkEjb0g_069.png,1080,1920,real,REAL_Nominal,,EDDF,7R,28,,,,,,,,,,,,,958,429,972,429,987,501,942,502,9z0kkkEjb0g_069.png,True
images/9z0kkkEjb0g_072.png,1080,1920,real,REAL_Nominal,,EDDF,7R,22,,,,,,,,,,,,,952,399,967,399,996,480,936,481,9z0kkkEjb0g_072.png,True
images/9z0kkkEjb0g_074.png,1080,1920,real,REAL_Nominal,,EDDF,7R,18,,,,,,,,,,,,,990,417,1004,417,1033,510,956,511,9z0kkkEjb0g_074.png,True
images/9z0kkkEjb0g_076.png,1080,1920,real,REAL_Nominal,,EDDF,7R,14,,,,,,,,,,,,,892,420,906,420,849,534,955,536,9z0kkkEjb0g_076.png,True
images/9z0kkkEjb0g_077.png,1080,1920,real,REAL_Nominal,,EDDF,7R,12,,,,,,,,,,,,,902,408,915,408,846,537,978,539,9z0kkkEjb0g_077.png,True
images/9z0kkkEjb0g_078.png,1080,1920,real,REAL_Nominal,,EDDF,7R,10,,,,,,,,,,,,,903,408,916,408,824,566,1000,567,9z0kkkEjb0g_078.png,True
images/9z0kkkEjb0g_079.png,1080,1920,real,REAL_Nominal,,EDDF,7R,8,,,,,,,,,,,,,906,384,921,384,769,580,1029,596,9z0kkkEjb0g_079.png,True
images/9z0kkkEjb0g_080.png,1080,1920,real,REAL_Nominal,,EDDF,7R,6,,,,,,,,,,,,,902,364,920,364,648,671,1160,689,9z0kkkEjb0g_080.png,True
images/a8wAzQ-7HUY_055.png,2160,3840,real,REAL_Nominal,,LIRN,6,40,,,,,,,,,,,,,1618,920,1637,920,1625,973,1662,973,a8wAzQ-7HUY_055.png,True
images/a8wAzQ-7HUY_060.png,2160,3840,real,REAL_Nominal,,LIRN,6,30,,,,,,,,,,,,,2127,905,2148,905,2150,970,2107,971,a8wAzQ-7HUY_060.png,True
images/a8wAzQ-7HUY_064.png,2160,3840,real,REAL_Nominal,,LIRN,6,22,,,,,,,,,,,,,1712,892,1736,892,1692,972,1756,972,a8wAzQ-7HUY_064.png,True
images/a8wAzQ-7HUY_067.png,2160,3840,real,REAL_Nominal,,LIRN,6,16,,,,,,,,,,,,,2084,892,2059,893,2129,987,2035,991,a8wAzQ-7HUY_067.png,True
images/a8wAzQ-7HUY_069.png,2160,3840,real,REAL_Nominal,,LIRN,6,12,,,,,,,,,,,,,2009,884,2038,884,2092,1002,1957,1004,a8wAzQ-7HUY_069.png,True
images/a8wAzQ-7HUY_070.png,2160,3840,real,REAL_Nominal,,LIRN,6,10,,,,,,,,,,,,,2005,872,2036,872,2108,1005,1931,1008,a8wAzQ-7HUY_070.png,True
images/a8wAzQ-7HUY_071.png,2160,3840,real,REAL_Nominal,,LIRN,6,8,,,,,,,,,,,,,1803,865,1835,865,1700,1018,1946,1021,a8wAzQ-7HUY_071.png,True
images/a8wAzQ-7HUY_072.png,2160,3840,real,REAL_Nominal,,LIRN,6,6,,,,,,,,,,,,,2011,871,2047,871,1811,1076,2228,1076,a8wAzQ-7HUY_072.png,True
images/a8wAzQ-7HUY_073.png,2160,3840,real,REAL_Nominal,,LIRN,6,4,,,,,,,,,,,,,2017,877,2055,878,1371,1372,2712,1373,a8wAzQ-7HUY_073.png,True
images/ACMM4FvmtY0_088.png,2160,3840,real,REAL_Nominal,,LEMD,32R,40,,,,,,,,,,,,,2275,1166,2294,1167,2258,1224,2299,1227,ACMM4FvmtY0_088.png,True
images/ACMM4FvmtY0_093.png,2160,3840,real,REAL_Nominal,,LEMD,32R,30,,,,,,,,,,,,,2269,1180,2287,1183,2238,1250,2294,1258,ACMM4FvmtY0_093.png,False
images/ACMM4FvmtY0_096.png,2160,3840,real,REAL_Nominal,,LEMD,32R,24,,,,,,,,,,,,,1554,1138,1577,1138,1604,1221,1531,1223,ACMM4FvmtY0_096.png,True
images/ACMM4FvmtY0_099.png,2160,3840,real,REAL_Nominal,,LEMD,32R,18,,,,,,,,,,,,,1585,1207,1561,1209,1637,1304,1530,1313,ACMM4FvmtY0_099.png,True
images/ACMM4FvmtY0_101.png,2160,3840,real,REAL_Nominal,,LEMD,32R,14,,,,,,,,,,,,,2277,1180,2302,1183,2198,1294,2342,1312,ACMM4FvmtY0_101.png,True
images/ACMM4FvmtY0_102.png,2160,3840,real,REAL_Nominal,,LEMD,32R,12,,,,,,,,,,,,,1559,1148,1531,1151,1657,1278,1476,1300,ACMM4FvmtY0_102.png,True
images/ACMM4FvmtY0_103.png,2160,3840,real,REAL_Nominal,,LEMD,32R,10,,,,,,,,,,,,,2292,1157,2319,1159,2175,1314,2413,1333,ACMM4FvmtY0_103.png,True
images/ACMM4FvmtY0_104.png,2160,3840,real,REAL_Nominal,,LEMD,32R,8,,,,,,,,,,,,,2275,1177,2304,1180,2100,1365,2450,1400,ACMM4FvmtY0_104.png,True
images/ACMM4FvmtY0_105.png,2160,3840,real,REAL_Nominal,,LEMD,32R,6,,,,,,,,,,,,,1559,1187,1527,1188,1876,1476,1217,1522,ACMM4FvmtY0_105.png,True
images/AizLOuimGXU_021.png,1080,1920,real,REAL_Nominal,,EGCC,23R,28,,,,,,,,,,,,,822,372,842,372,814,426,851,427,AizLOuimGXU_021.png,False
images/AizLOuimGXU_024.png,1080,1920,real,REAL_Nominal,,EGCC,23R,22,,,,,,,,,,,,,847,395,868,396,823,466,885,468,AizLOuimGXU_024.png,True
images/AizLOuimGXU_026.png,1080,1920,real,REAL_Nominal,,EGCC,23R,18,,,,,,,,,,,,,885,387,858,388,916,467,838,468,AizLOuimGXU_026.png,True
images/AizLOuimGXU_028.png,1080,1920,real,REAL_Nominal,,EGCC,23R,14,,,,,,,,,,,,,1088,409,1119,409,1156,506,1044,507,AizLOuimGXU_028.png,True
images/AizLOuimGXU_030.png,1080,1920,real,REAL_Nominal,,EGCC,23R,10,,,,,,,,,,,,,802,397,834,397,921,536,725,537,AizLOuimGXU_030.png,True
images/AizLOuimGXU_031.png,1080,1920,real,REAL_Nominal,,EGCC,23R,8,,,,,,,,,,,,,821,362,856,364,686,546,995,556,AizLOuimGXU_031.png,True
images/AizLOuimGXU_032.png,1080,1920,real,REAL_Nominal,,EGCC,23R,6,,,,,,,,,,,,,879,360,834,361,1260,725,514,739,AizLOuimGXU_032.png,True
images/aNrK_udCVpo_031.png,1080,1920,real,REAL_Nominal,,UKKK,8,26,,,,,,,,,,,,,662,446,680,447,653,491,694,492,aNrK_udCVpo_031.png,False
images/aNrK_udCVpo_034.png,1080,1920,real,REAL_Nominal,,UKKK,8,20,,,,,,,,,,,,,745,474,726,475,768,527,712,528,aNrK_udCVpo_034.png,False
images/aNrK_udCVpo_036.png,1080,1920,real,REAL_Nominal,,UKKK,8,16,,,,,,,,,,,,,713,428,736,428,767,490,693,491,aNrK_udCVpo_036.png,True
images/aNrK_udCVpo_037.png,1080,1920,real,REAL_Nominal,,UKKK,8,14,,,,,,,,,,,,,724,462,747,462,787,529,699,531,aNrK_udCVpo_037.png,True
images/aNrK_udCVpo_038.png,1080,1920,real,REAL_Nominal,,UKKK,8,12,,,,,,,,,,,,,692,463,717,463,653,539,768,540,aNrK_udCVpo_038.png,True
images/aNrK_udCVpo_039.png,1080,1920,real,REAL_Nominal,,UKKK,8,10,,,,,,,,,,,,,713,445,687,446,789,534,636,537,aNrK_udCVpo_039.png,True
images/aNrK_udCVpo_040.png,1080,1920,real,REAL_Nominal,,UKKK,8,8,,,,,,,,,,,,,1154,441,1179,441,1031,551,1260,561,aNrK_udCVpo_040.png,True
images/AUChg7Fx2aw_050.png,1080,1920,real,REAL_Nominal,,HECA,5C,14,,,,,,,,,,,,,926,298,943,298,885,389,994,390,AUChg7Fx2aw_050.png,True
images/AUChg7Fx2aw_052.png,1080,1920,real,REAL_Nominal,,HECA,5C,10,,,,,,,,,,,,,975,230,996,231,887,352,1058,352,AUChg7Fx2aw_052.png,True
images/AUChg7Fx2aw_053.png,1080,1920,real,REAL_Nominal,,HECA,5C,8,,,,,,,,,,,,,970,263,947,264,1071,408,828,414,AUChg7Fx2aw_053.png,True
images/AUChg7Fx2aw_054.png,1080,1920,real,REAL_Nominal,,HECA,5C,6,,,,,,,,,,,,,949,306,977,306,773,504,1182,513,AUChg7Fx2aw_054.png,True
images/AxSZrNhd7aE_017.png,1080,1920,real,REAL_Nominal,,EBBR,25L,32,,,,,,,,,,,,,831,693,842,693,826,733,853,733,AxSZrNhd7aE_017.png,False
images/AxSZrNhd7aE_020.png,1080,1920,real,REAL_Nominal,,EBBR,25L,26,,,,,,,,,,,,,858,716,871,716,848,760,882,760,AxSZrNhd7aE_020.png,False
images/AxSZrNhd7aE_024.png,1080,1920,real,REAL_Nominal,,EBBR,25L,18,,,,,,,,,,,,,772,593,783,593,753,647,800,647,AxSZrNhd7aE_024.png,True
images/AxSZrNhd7aE_026.png,1080,1920,real,REAL_Nominal,,EBBR,25L,14,,,,,,,,,,,,,838,742,852,742,807,803,873,806,AxSZrNhd7aE_026.png,True
images/AxSZrNhd7aE_028.png,1080,1920,real,REAL_Nominal,,EBBR,25L,10,,,,,,,,,,,,,1062,746,1076,746,1124,827,1017,828,AxSZrNhd7aE_028.png,True
images/AxSZrNhd7aE_029.png,1080,1920,real,REAL_Nominal,,EBBR,25L,8,,,,,,,,,,,,,837,748,853,748,927,848,771,850,AxSZrNhd7aE_029.png,True
images/AxSZrNhd7aE_030.png,1080,1920,real,REAL_Nominal,,EBBR,25L,6,,,,,,,,,,,,,824,740,841,740,999,888,704,902,AxSZrNhd7aE_030.png,True
images/A_P_rF7EJL4_074.png,2160,3840,real,REAL_Nominal,,LJLJ,30,102,,,,,,,,,,,,,1399,932,1408,932,1399,967,1413,967,A_P_rF7EJL4_074.png,False
images/A_P_rF7EJL4_086.png,2160,3840,real,REAL_Nominal,,LJLJ,30,78,,,,,,,,,,,,,1386,940,1396,940,1383,983,1401,983,A_P_rF7EJL4_086.png,False
images/A_P_rF7EJL4_094.png,2160,3840,real,REAL_Nominal,,LJLJ,30,62,,,,,,,,,,,,,2444,945,2457,945,2438,993,2460,993,A_P_rF7EJL4_094.png,False
images/A_P_rF7EJL4_101.png,2160,3840,real,REAL_Nominal,,LJLJ,30,48,,,,,,,,,,,,,1356,946,1368,946,1349,1006,1376,1006,A_P_rF7EJL4_101.png,False
images/A_P_rF7EJL4_106.png,2160,3840,real,REAL_Nominal,,LJLJ,30,38,,,,,,,,,,,,,1379,920,1393,920,1371,985,1403,986,A_P_rF7EJL4_106.png,False
images/A_P_rF7EJL4_110.png,2160,3840,real,REAL_Nominal,,LJLJ,30,30,,,,,,,,,,,,,1370,928,1385,928,1358,1003,1400,1003,A_P_rF7EJL4_110.png,True
images/A_P_rF7EJL4_113.png,2160,3840,real,REAL_Nominal,,LJLJ,30,24,,,,,,,,,,,,,2448,914,2465,914,2429,999,2482,1000,A_P_rF7EJL4_113.png,True
images/A_P_rF7EJL4_114.png,2160,3840,real,REAL_Nominal,,LJLJ,30,22,,,,,,,,,,,,,2454,928,2473,928,2434,1021,2493,1022,A_P_rF7EJL4_114.png,True
images/A_P_rF7EJL4_116.png,2160,3840,real,REAL_Nominal,,LJLJ,30,18,,,,,,,,,,,,,1369,934,1385,934,1412,1040,1336,1042,A_P_rF7EJL4_116.png,True
images/A_P_rF7EJL4_118.png,2160,3840,real,REAL_Nominal,,LJLJ,30,14,,,,,,,,,,,,,2458,905,2477,905,2412,1028,2517,1031,A_P_rF7EJL4_118.png,True
images/A_P_rF7EJL4_119.png,2160,3840,real,REAL_Nominal,,LJLJ,30,12,,,,,,,,,,,,,2465,892,2486,892,2408,1027,2537,1032,A_P_rF7EJL4_119.png,True
images/A_P_rF7EJL4_120.png,2160,3840,real,REAL_Nominal,,LJLJ,30,10,,,,,,,,,,,,,2472,892,2492,893,2392,1044,2563,1051,A_P_rF7EJL4_120.png,True
images/A_P_rF7EJL4_121.png,2160,3840,real,REAL_Nominal,,LJLJ,30,8,,,,,,,,,,,,,1347,890,1368,890,1486,1074,1234,1083,A_P_rF7EJL4_121.png,True
images/A_P_rF7EJL4_122.png,2160,3840,real,REAL_Nominal,,LJLJ,30,6,,,,,,,,,,,,,1346,883,1371,883,1600,1158,1124,1175,A_P_rF7EJL4_122.png,True
images/bBO3MEZg9co_056.png,1080,1920,real,REAL_Nominal,,EGCC,23R,50,,,,,,,,,,,,,836,411,849,411,854,451,832,452,bBO3MEZg9co_056.png,True
images/bBO3MEZg9co_063.png,1080,1920,real,REAL_Nominal,,EGCC,23R,36,,,,,,,,,,,,,842,399,857,399,835,448,867,448,bBO3MEZg9co_063.png,False
images/bBO3MEZg9co_067.png,1080,1920,real,REAL_Nominal,,EGCC,23R,28,,,,,,,,,,,,,1076,374,1096,374,1064,432,1109,432,bBO3MEZg9co_067.png,True
images/bBO3MEZg9co_070.png,1080,1920,real,REAL_Nominal,,EGCC,23R,22,,,,,,,,,,,,,1061,405,1083,405,1105,472,1047,474,bBO3MEZg9co_070.png,True
images/bBO3MEZg9co_072.png,1080,1920,real,REAL_Nominal,,EGCC,23R,18,,,,,,,,,,,,,864,377,888,377,919,455,844,457,bBO3MEZg9co_072.png,True
images/bBO3MEZg9co_074.png,1080,1920,real,REAL_Nominal,,EGCC,23R,14,,,,,,,,,,,,,1082,407,1110,408,1039,501,1141,502,bBO3MEZg9co_074.png,True
images/bBO3MEZg9co_076.png,1080,1920,real,REAL_Nominal,,EGCC,23R,10,,,,,,,,,,,,,797,413,830,413,902,535,738,536,bBO3MEZg9co_076.png,True
images/bBO3MEZg9co_077.png,1080,1920,real,REAL_Nominal,,EGCC,23R,8,,,,,,,,,,,,,1080,379,1116,379,1210,536,972,537,bBO3MEZg9co_077.png,True
images/bBO3MEZg9co_078.png,1080,1920,real,REAL_Nominal,,EGCC,23R,6,,,,,,,,,,,,,829,354,869,355,637,589,1072,602,bBO3MEZg9co_078.png,True
images/BLEWNDcQ2O0_089.png,2160,3840,real,REAL_Nominal,,LIMF,21,22,,,,,,,,,,,,,1599,1137,1622,1137,1719,1229,1790,1231,BLEWNDcQ2O0_089.png,True
images/BLEWNDcQ2O0_092.png,2160,3840,real,REAL_Nominal,,LIMF,21,16,,,,,,,,,,,,,1620,1110,1650,1114,1662,1207,1764,1220,BLEWNDcQ2O0_092.png,True
images/BLEWNDcQ2O0_094.png,2160,3840,real,REAL_Nominal,,LIMF,21,12,,,,,,,,,,,,,1770,1108,1799,1114,1742,1197,1885,1223,BLEWNDcQ2O0_094.png,True
images/BLEWNDcQ2O0_095.png,2160,3840,real,REAL_Nominal,,LIMF,21,10,,,,,,,,,,,,,2011,1123,1980,1128,2082,1207,1893,1242,BLEWNDcQ2O0_095.png,True
images/BLEWNDcQ2O0_096.png,2160,3840,real,REAL_Nominal,,LIMF,21,8,,,,,,,,,,,,,1949,1120,1985,1123,1835,1212,2104,1241,BLEWNDcQ2O0_096.png,True
images/BLEWNDcQ2O0_097.png,2160,3840,real,REAL_Nominal,,LIMF,21,6,,,,,,,,,,,,,1933,1141,1971,1141,1721,1252,2184,1279,BLEWNDcQ2O0_097.png,True
images/BLEWNDcQ2O0_098.png,2160,3840,real,REAL_Nominal,,LIMF,21,4,,,,,,,,,,,,,1930,1218,1979,1219,1147,1435,2747,1516,BLEWNDcQ2O0_098.png,True
images/BRhCv1SqdaA_047.png,2160,3840,real,REAL_Nominal,,EGCC,23R,76,,,,,,,,,,,,,1626,732,1636,732,1621,766,1638,766,BRhCv1SqdaA_047.png,False
images/BRhCv1SqdaA_054.png,2160,3840,real,REAL_Nominal,,EGCC,23R,62,,,,,,,,,,,,,2211,739,2224,739,2229,777,2209,778,BRhCv1SqdaA_054.png,True
images/BRhCv1SqdaA_061.png,2160,3840,real,REAL_Nominal,,EGCC,23R,48,,,,,,,,,,,,,1642,747,1657,747,1637,791,1663,791,BRhCv1SqdaA_061.png,True
images/BRhCv1SqdaA_066.png,2160,3840,real,REAL_Nominal,,EGCC,23R,38,,,,,,,,,,,,,2199,733,2215,733,2189,785,2222,785,BRhCv1SqdaA_066.png,True
images/BRhCv1SqdaA_070.png,2160,3840,real,REAL_Nominal,,EGCC,23R,30,,,,,,,,,,,,,1642,730,1624,731,1654,790,1612,791,BRhCv1SqdaA_070.png,True
images/BRhCv1SqdaA_073.png,2160,3840,real,REAL_Nominal,,EGCC,23R,24,,,,,,,,,,,,,2209,727,2228,728,2191,798,2245,799,BRhCv1SqdaA_073.png,True
images/BRhCv1SqdaA_076.png,2160,3840,real,REAL_Nominal,,EGCC,23R,18,,,,,,,,,,,,,1592,730,1616,730,1642,812,1566,814,BRhCv1SqdaA_076.png,True
images/BRhCv1SqdaA_078.png,2160,3840,real,REAL_Nominal,,EGCC,23R,14,,,,,,,,,,,,,2262,696,2236,697,2301,793,2200,796,BRhCv1SqdaA_078.png,True
images/BRhCv1SqdaA_079.png,2160,3840,real,REAL_Nominal,,EGCC,23R,12,,,,,,,,,,,,,2233,714,2260,715,2180,823,2307,824,BRhCv1SqdaA_079.png,True
images/BRhCv1SqdaA_080.png,2160,3840,real,REAL_Nominal,,EGCC,23R,10,,,,,,,,,,,,,2258,721,2290,722,2192,847,2354,849,BRhCv1SqdaA_080.png,True
images/BRhCv1SqdaA_081.png,2160,3840,real,REAL_Nominal,,EGCC,23R,8,,,,,,,,,,,,,2282,700,2317,700,2185,859,2415,862,BRhCv1SqdaA_081.png,True
images/BRhCv1SqdaA_082.png,2160,3840,real,REAL_Nominal,,EGCC,23R,6,,,,,,,,,,,,,1564,671,1524,672,1763,901,1353,929,BRhCv1SqdaA_082.png,True
images/c93nm0fHCXE_044.png,1080,1920,real,REAL_Nominal,,LKPR,31,30,,,,,,,,,,,,,617,417,601,419,635,461,602,465,c93nm0fHCXE_044.png,False
images/c93nm0fHCXE_049.png,1080,1920,real,REAL_Nominal,,LKPR,31,20,,,,,,,,,,,,,1304,412,1321,414,1278,471,1336,477,c93nm0fHCXE_049.png,True
images/c93nm0fHCXE_051.png,1080,1920,real,REAL_Nominal,,LKPR,31,16,,,,,,,,,,,,,1289,431,1305,433,1247,502,1325,510,c93nm0fHCXE_051.png,True
images/c93nm0fHCXE_053.png,1080,1920,real,REAL_Nominal,,LKPR,31,12,,,,,,,,,,,,,1300,400,1315,402,1224,497,1353,514,c93nm0fHCXE_053.png,True
images/c93nm0fHCXE_054.png,1080,1920,real,REAL_Nominal,,LKPR,31,10,,,,,,,,,,,,,1298,405,1317,407,1191,526,1379,547,c93nm0fHCXE_054.png,True
images/c93nm0fHCXE_055.png,1080,1920,real,REAL_Nominal,,LKPR,31,8,,,,,,,,,,,,,1301,406,1322,408,1107,582,1452,625,c93nm0fHCXE_055.png,True
images/CL2E9TS7IZw_051.png,1080,1920,real,REAL_Nominal,,EHAM,18R,72,,,,,,,,,,,,,824,311,836,311,820,353,841,353,CL2E9TS7IZw_051.png,True
images/CL2E9TS7IZw_057.png,1080,1920,real,REAL_Nominal,,EHAM,18R,60,,,,,,,,,,,,,1113,343,1125,343,1105,388,1131,388,CL2E9TS7IZw_057.png,True
images/CL2E9TS7IZw_065.png,1080,1920,real,REAL_Nominal,,EHAM,18R,44,,,,,,,,,,,,,1009,327,1023,327,1037,380,1001,381,CL2E9TS7IZw_065.png,True
images/CL2E9TS7IZw_069.png,1080,1920,real,REAL_Nominal,,EHAM,18R,36,,,,,,,,,,,,,806,343,823,343,793,404,837,404,CL2E9TS7IZw_069.png,True
images/CL2E9TS7IZw_073.png,1080,1920,real,REAL_Nominal,,EHAM,18R,28,,,,,,,,,,,,,871,311,891,311,846,378,905,382,CL2E9TS7IZw_073.png,True
images/CL2E9TS7IZw_076.png,1080,1920,real,REAL_Nominal,,EHAM,18R,22,,,,,,,,,,,,,849,352,868,352,818,432,900,433,CL2E9TS7IZw_076.png,True
images/CL2E9TS7IZw_078.png,1080,1920,real,REAL_Nominal,,EHAM,18R,18,,,,,,,,,,,,,1038,359,1060,360,993,450,1099,451,CL2E9TS7IZw_078.png,True
images/CL2E9TS7IZw_080.png,1080,1920,real,REAL_Nominal,,EHAM,18R,14,,,,,,,,,,,,,854,322,874,322,787,433,937,435,CL2E9TS7IZw_080.png,True
images/CL2E9TS7IZw_081.png,1080,1920,real,REAL_Nominal,,EHAM,18R,12,,,,,,,,,,,,,1045,314,1068,314,1155,439,960,442,CL2E9TS7IZw_081.png,True
images/CL2E9TS7IZw_082.png,1080,1920,real,REAL_Nominal,,EHAM,18R,10,,,,,,,,,,,,,841,323,861,323,991,475,723,480,CL2E9TS7IZw_082.png,True
images/CL2E9TS7IZw_083.png,1080,1920,real,REAL_Nominal,,EHAM,18R,8,,,,,,,,,,,,,1034,297,1058,297,1273,509,826,515,CL2E9TS7IZw_083.png,True
images/CL2E9TS7IZw_084.png,1080,1920,real,REAL_Nominal,,EHAM,18R,6,,,,,,,,,,,,,847,294,875,294,180,777,1473,790,CL2E9TS7IZw_084.png,True
images/Cvoo6vQ5qNQ_010.png,2160,3840,real,REAL_Nominal,,RJTT,22,74,,,,,,,,,,,,,463,898,487,898,624,962,662,963,Cvoo6vQ5qNQ_010.png,False
images/Cvoo6vQ5qNQ_020.png,2160,3840,real,REAL_Nominal,,RJTT,22,54,,,,,,,,,,,,,3221,907,3197,908,3160,977,3108,982,Cvoo6vQ5qNQ_020.png,False
images/Cvoo6vQ5qNQ_028.png,2160,3840,real,REAL_Nominal,,RJTT,22,38,,,,,,,,,,,,,1359,1000,1389,1000,1353,1076,1416,1077,Cvoo6vQ5qNQ_028.png,True
images/Cvoo6vQ5qNQ_032.png,2160,3840,real,REAL_Nominal,,RJTT,22,30,,,,,,,,,,,,,2374,962,2340,963,2402,1049,2320,1051,Cvoo6vQ5qNQ_032.png,True
images/Cvoo6vQ5qNQ_035.png,2160,3840,real,REAL_Nominal,,RJTT,22,24,,,,,,,,,,,,,2247,954,2285,954,2215,1053,2320,1054,Cvoo6vQ5qNQ_035.png,True
images/Cvoo6vQ5qNQ_038.png,2160,3840,real,REAL_Nominal,,RJTT,22,18,,,,,,,,,,,,,1560,943,1517,944,1612,1058,1467,1062,Cvoo6vQ5qNQ_038.png,True
images/Cvoo6vQ5qNQ_040.png,2160,3840,real,REAL_Nominal,,RJTT,22,14,,,,,,,,,,,,,1523,970,1566,970,1439,1106,1634,1106,Cvoo6vQ5qNQ_040.png,True
images/Cvoo6vQ5qNQ_041.png,2160,3840,real,REAL_Nominal,,RJTT,22,12,,,,,,,,,,,,,2252,983,2295,983,2401,1139,2165,1141,Cvoo6vQ5qNQ_041.png,True
images/Cvoo6vQ5qNQ_042.png,2160,3840,real,REAL_Nominal,,RJTT,22,10,,,,,,,,,,,,,2236,955,2283,955,2106,1134,2408,1142,Cvoo6vQ5qNQ_042.png,True
images/Cvoo6vQ5qNQ_043.png,2160,3840,real,REAL_Nominal,,RJTT,22,8,,,,,,,,,,,,,1523,911,1575,911,1763,1134,1351,1143,Cvoo6vQ5qNQ_043.png,True
images/Cvoo6vQ5qNQ_044.png,2160,3840,real,REAL_Nominal,,RJTT,22,6,,,,,,,,,,,,,1519,887,1570,887,1886,1193,1212,1211,Cvoo6vQ5qNQ_044.png,True
images/d7qi2fGpNcg_054.png,1080,1920,real,REAL_Nominal,,LFPG,27R,24,,,,,,,,,,,,,1017,480,1039,480,986,559,1070,559,d7qi2fGpNcg_054.png,True
images/d7qi2fGpNcg_057.png,1080,1920,real,REAL_Nominal,,LFPG,27R,18,,,,,,,,,,,,,849,463,864,463,787,566,921,566,d7qi2fGpNcg_057.png,True
images/d7qi2fGpNcg_059.png,1080,1920,real,REAL_Nominal,,LFPG,27R,14,,,,,,,,,,,,,843,453,866,453,951,583,745,585,d7qi2fGpNcg_059.png,True
images/d7qi2fGpNcg_060.png,1080,1920,real,REAL_Nominal,,LFPG,27R,12,,,,,,,,,,,,,1030,471,1055,471,905,628,1194,631,d7qi2fGpNcg_060.png,True
images/d7qi2fGpNcg_061.png,1080,1920,real,REAL_Nominal,,LFPG,27R,10,,,,,,,,,,,,,887,471,904,471,1133,691,647,710,d7qi2fGpNcg_061.png,True
images/dgMjkZCQsCo_051.png,2160,3840,real,REAL_Nominal,,BGBW,6,66,,,,,,,,,,,,,2781,835,2799,835,2711,894,2736,894,dgMjkZCQsCo_051.png,False
images/dgMjkZCQsCo_057.png,2160,3840,real,REAL_Nominal,,BGBW,6,54,,,,,,,,,,,,,1563,853,1593,853,1593,914,1623,918,dgMjkZCQsCo_057.png,False
images/dgMjkZCQsCo_060.png,2160,3840,real,REAL_Nominal,,BGBW,6,48,,,,,,,,,,,,,1746,911,1765,912,1765,976,1798,978,dgMjkZCQsCo_060.png,False
images/dgMjkZCQsCo_063.png,2160,3840,real,REAL_Nominal,,BGBW,6,42,,,,,,,,,,,,,2058,924,2079,924,2074,995,2033,996,dgMjkZCQsCo_063.png,False
images/dgMjkZCQsCo_068.png,2160,3840,real,REAL_Nominal,,BGBW,6,32,,,,,,,,,,,,,1870,934,1895,936,1847,1018,1899,1023,dgMjkZCQsCo_068.png,True
images/dgMjkZCQsCo_070.png,2160,3840,real,REAL_Nominal,,BGBW,6,28,,,,,,,,,,,,,1887,940,1859,941,1911,1033,1851,1037,dgMjkZCQsCo_070.png,True
images/dgMjkZCQsCo_072.png,2160,3840,real,REAL_Nominal,,BGBW,6,24,,,,,,,,,,,,,1975,934,2005,934,1948,1037,2020,1041,dgMjkZCQsCo_072.png,True
images/dgMjkZCQsCo_075.png,2160,3840,real,REAL_Nominal,,BGBW,6,18,,,,,,,,,,,,,1881,947,1848,948,1925,1075,1824,1079,dgMjkZCQsCo_075.png,True
images/dgMjkZCQsCo_077.png,2160,3840,real,REAL_Nominal,,BGBW,6,14,,,,,,,,,,,,,1884,936,1849,938,1954,1090,1815,1096,dgMjkZCQsCo_077.png,True
images/dgMjkZCQsCo_078.png,2160,3840,real,REAL_Nominal,,BGBW,6,12,,,,,,,,,,,,,1877,932,1836,933,1961,1104,1792,1112,dgMjkZCQsCo_078.png,True
images/dgMjkZCQsCo_079.png,2160,3840,real,REAL_Nominal,,BGBW,6,10,,,,,,,,,,,,,1877,925,1835,927,1990,1125,1771,1136,dgMjkZCQsCo_079.png,True
images/dgMjkZCQsCo_080.png,2160,3840,real,REAL_Nominal,,BGBW,6,8,,,,,,,,,,,,,1960,908,2006,909,1800,1152,2110,1163,dgMjkZCQsCo_080.png,True
images/dgMjkZCQsCo_081.png,2160,3840,real,REAL_Nominal,,BGBW,6,6,,,,,,,,,,,,,1945,900,1992,902,1654,1223,2170,1240,dgMjkZCQsCo_081.png,True
images/dnYBg3uZ5X4_083.png,720,1280,real,REAL_Nominal,,KIAH,8R,32,,,,,,,,,,,,,564,276,572,276,578,305,560,306,dnYBg3uZ5X4_083.png,False
images/dnYBg3uZ5X4_090.png,720,1280,real,REAL_Nominal,,KIAH,8R,18,,,,,,,,,,,,,706,246,715,246,685,288,722,290,dnYBg3uZ5X4_090.png,True
images/dnYBg3uZ5X4_091.png,720,1280,real,REAL_Nominal,,KIAH,8R,16,,,,,,,,,,,,,542,250,553,250,580,295,537,298,dnYBg3uZ5X4_091.png,True
images/DW38H15CwsY_045.png,1080,1920,real,REAL_Nominal,,GMMX,10,42,,,,,,,,,,,,,800,397,812,397,821,448,797,449,DW38H15CwsY_045.png,True
images/DW38H15CwsY_049.png,1080,1920,real,REAL_Nominal,,GMMX,10,34,,,,,,,,,,,,,1119,453,1133,454,1105,511,1137,513,DW38H15CwsY_049.png,True
