image,height,width,type,original_dataset,scenario,airport,runway,time_to_landing,weather,night,time,slant_distance,along_track_distance,height_above_runway,lateral_path_angle,vertical_path_angle,yaw,pitch,roll,watermark_height,x_A,y_A,x_B,y_B,x_C,y_C,x_D,y_D,image_name,detected
images/-PJP3pgLgjI_022.png,2160,3840,real,REAL_Edge_Cases,,EBBR,25L,30,rain,,,,,,,,,,,,2038,1276,2055,1277,2017,1352,2069,1355,-PJP3pgLgjI_022.png,False
images/-PJP3pgLgjI_025.png,2160,3840,real,REAL_Edge_Cases,,EBBR,25L,24,rain,,,,,,,,,,,,1771,1327,1788,1327,1744,1413,1812,1413,-PJP3pgLgjI_025.png,False
images/-PJP3pgLgjI_027.png,2160,3840,real,REAL_Edge_Cases,,EBBR,25L,20,rain,,,,,,,,,,,,2018,1374,2037,1375,1986,1472,2069,1474,-PJP3pgLgjI_027.png,False
images/-PJP3pgLgjI_029.png,2160,3840,real,REAL_Edge_Cases,,EBBR,25L,16,rain,,,,,,,,,,,,1841,1319,1862,1319,1789,1438,1900,1442,-PJP3pgLgjI_029.png,False
images/-PJP3pgLgjI_030.png,2160,3840,real,REAL_Edge_Cases,,EBBR,25L,14,rain,,,,,,,,,,,,2016,1327,2037,1328,1952,1456,2089,1464,-PJP3pgLgjI_030.png,False
images/-PJP3pgLgjI_031.png,2160,3840,real,REAL_Edge_Cases,,EBBR,25L,12,rain,,,,,,,,,,,,1772,1332,1751,1333,1852,1482,1675,1486,-PJP3pgLgjI_031.png,False
images/-PJP3pgLgjI_032.png,2160,3840,real,REAL_Edge_Cases,,EBBR,25L,10,rain,,,,,,,,,,,,1774,1342,1751,1343,1889,1519,1643,1521,-PJP3pgLgjI_032.png,False
images/-PJP3pgLgjI_033.png,2160,3840,real,REAL_Edge_Cases,,EBBR,25L,8,rain,,,,,,,,,,,,2054,1366,2075,1368,1837,1615,2252,1631,-PJP3pgLgjI_033.png,False
images/0fiHJrxfJPE_080.png,2160,3840,real,REAL_Edge_Cases,,KSFO,28R,12,rain,,,,,,,,,,,,2015,911,2045,911,1943,1039,2106,1042,0fiHJrxfJPE_080.png,True
images/0fiHJrxfJPE_081.png,2160,3840,real,REAL_Edge_Cases,,KSFO,28R,10,rain,,,,,,,,,,,,2017,931,2044,931,1921,1078,2128,1081,0fiHJrxfJPE_081.png,True
images/0fiHJrxfJPE_084.png,2160,3840,real,REAL_Edge_Cases,,KSFO,28R,4,rain,,,,,,,,,,,,1769,919,1819,921,1108,1441,2429,1444,0fiHJrxfJPE_084.png,True
images/0qaGQFzHhxE_079.png,2160,3840,real,REAL_Edge_Cases,,UGTB,31L,62,,,,,,,,,,,,,1855,963,1869,964,1838,1022,1863,1023,0qaGQFzHhxE_079.png,False
images/0qaGQFzHhxE_084.png,2160,3840,real,REAL_Edge_Cases,,UGTB,31L,52,,,,,,,,,,,,,1970,963,1984,963,2020,1021,1989,1022,0qaGQFzHhxE_084.png,False
images/0qaGQFzHhxE_089.png,2160,3840,real,REAL_Edge_Cases,,UGTB,31L,42,,,,,,,,,,,,,1856,991,1841,993,1918,1050,1878,1055,0qaGQFzHhxE_089.png,False
images/0qaGQFzHhxE_091.png,2160,3840,real,REAL_Edge_Cases,,UGTB,31L,38,,,,,,,,,,,,,2071,1024,2091,1024,2014,1079,2059,1084,0qaGQFzHhxE_091.png,False
images/0qaGQFzHhxE_094.png,2160,3840,real,REAL_Edge_Cases,,UGTB,31L,32,,,,,,,,,,,,,1751,1061,1768,1062,1755,1132,1810,1134,0qaGQFzHhxE_094.png,False
images/0qaGQFzHhxE_097.png,2160,3840,real,REAL_Edge_Cases,,UGTB,31L,26,,,,,,,,,,,,,1948,1023,1966,1023,1974,1102,1905,1103,0qaGQFzHhxE_097.png,False
images/0qaGQFzHhxE_100.png,2160,3840,real,REAL_Edge_Cases,,UGTB,31L,20,,,,,,,,,,,,,1911,1046,1932,1046,1998,1138,1901,1143,0qaGQFzHhxE_100.png,False
images/0qaGQFzHhxE_102.png,2160,3840,real,REAL_Edge_Cases,,UGTB,31L,16,,,,,,,,,,,,,1944,1075,1967,1076,1851,1187,1982,1194,0qaGQFzHhxE_102.png,False
images/0qaGQFzHhxE_103.png,2160,3840,real,REAL_Edge_Cases,,UGTB,31L,14,,,,,,,,,,,,,1962,1066,1985,1066,1858,1202,2018,1207,0qaGQFzHhxE_103.png,False
images/0qaGQFzHhxE_104.png,2160,3840,real,REAL_Edge_Cases,,UGTB,31L,12,,,,,,,,,,,,,1857,1075,1881,1075,2008,1240,1802,1242,0qaGQFzHhxE_104.png,True
images/0qaGQFzHhxE_105.png,2160,3840,real,REAL_Edge_Cases,,UGTB,31L,10,,,,,,,,,,,,,1897,1025,1921,1025,1797,1244,2074,1245,0qaGQFzHhxE_105.png,True
images/0qaGQFzHhxE_106.png,2160,3840,real,REAL_Edge_Cases,,UGTB,31L,8,,,,,,,,,,,,,1911,1039,1939,1039,2203,1351,1739,1354,0qaGQFzHhxE_106.png,True
images/0qaGQFzHhxE_107.png,2160,3840,real,REAL_Edge_Cases,,UGTB,31L,6,,,,,,,,,,,,,1908,961,1939,962,1119,1654,2434,1674,0qaGQFzHhxE_107.png,True
images/0x7ZvtgN-f0_041.png,2160,3840,real,REAL_Edge_Cases,,LQSA,12,14,,,,,,,,,,,,,1891,1098,1915,1099,1854,1218,1957,1218,0x7ZvtgN-f0_041.png,False
images/0x7ZvtgN-f0_042.png,2160,3840,real,REAL_Edge_Cases,,LQSA,12,12,,,,,,,,,,,,,1939,1092,1959,1092,1878,1229,2006,1231,0x7ZvtgN-f0_042.png,False
images/0x7ZvtgN-f0_043.png,2160,3840,real,REAL_Edge_Cases,,LQSA,12,10,,,,,,,,,,,,,1934,1097,1958,1097,1849,1249,2018,1256,0x7ZvtgN-f0_043.png,False
images/0x7ZvtgN-f0_044.png,2160,3840,real,REAL_Edge_Cases,,LQSA,12,8,,,,,,,,,,,,,1866,1091,1886,1091,2017,1280,1769,1291,0x7ZvtgN-f0_044.png,True
images/0x7ZvtgN-f0_045.png,2160,3840,real,REAL_Edge_Cases,,LQSA,12,6,,,,,,,,,,,,,1866,1071,1887,1071,1656,1358,2108,1358,0x7ZvtgN-f0_045.png,True
images/3JgbW_yzuCg_070.png,1080,1920,real,REAL_Edge_Cases,,LGKR,35,42,,True,,,,,,,,,,,182,516,189,516,175,547,191,548,3JgbW_yzuCg_070.png,False
images/3JgbW_yzuCg_074.png,1080,1920,real,REAL_Edge_Cases,,LGKR,35,34,,True,,,,,,,,,,,213,517,222,517,204,554,225,555,3JgbW_yzuCg_074.png,False
images/3JgbW_yzuCg_077.png,1080,1920,real,REAL_Edge_Cases,,LGKR,35,28,,True,,,,,,,,,,,1701,516,1711,516,1693,558,1721,558,3JgbW_yzuCg_077.png,True
images/3JgbW_yzuCg_081.png,1080,1920,real,REAL_Edge_Cases,,LGKR,35,20,,True,,,,,,,,,,,182,502,194,502,212,553,166,554,3JgbW_yzuCg_081.png,True
images/3JgbW_yzuCg_083.png,1080,1920,real,REAL_Edge_Cases,,LGKR,35,16,,True,,,,,,,,,,,1728,516,1741,516,1771,577,1710,580,3JgbW_yzuCg_083.png,True
images/3JgbW_yzuCg_085.png,1080,1920,real,REAL_Edge_Cases,,LGKR,35,12,,True,,,,,,,,,,,1707,486,1724,486,1766,565,1672,567,3JgbW_yzuCg_085.png,True
images/3JgbW_yzuCg_086.png,1080,1920,real,REAL_Edge_Cases,,LGKR,35,10,,True,,,,,,,,,,,1711,486,1728,486,1653,578,1784,581,3JgbW_yzuCg_086.png,True
images/3JgbW_yzuCg_087.png,1080,1920,real,REAL_Edge_Cases,,LGKR,35,8,,True,,,,,,,,,,,1726,492,1744,492,1629,616,1839,617,3JgbW_yzuCg_087.png,True
images/5F4jCaqsMjU_068.png,1080,1920,real,REAL_Edge_Cases,,LBBG,4,72,,,,,,,,,,,,,1190,265,1196,266,1174,294,1185,294,5F4jCaqsMjU_068.png,False
images/5F4jCaqsMjU_076.png,1080,1920,real,REAL_Edge_Cases,,LBBG,4,56,,,,,,,,,,,,,600,309,594,310,626,338,612,340,5F4jCaqsMjU_076.png,True
images/5F4jCaqsMjU_081.png,1080,1920,real,REAL_Edge_Cases,,LBBG,4,46,,,,,,,,,,,,,490,307,498,307,507,343,489,344,5F4jCaqsMjU_081.png,True
images/5F4jCaqsMjU_085.png,1080,1920,real,REAL_Edge_Cases,,LBBG,4,38,,,,,,,,,,,,,661,312,670,312,646,350,667,351,5F4jCaqsMjU_085.png,True
images/5F4jCaqsMjU_089.png,1080,1920,real,REAL_Edge_Cases,,LBBG,4,30,,,,,,,,,,,,,733,295,724,296,738,337,711,338,5F4jCaqsMjU_089.png,True
images/5F4jCaqsMjU_092.png,1080,1920,real,REAL_Edge_Cases,,LBBG,4,24,,,,,,,,,,,,,1196,308,1205,308,1186,353,1222,356,5F4jCaqsMjU_092.png,True
images/5F4jCaqsMjU_095.png,1080,1920,real,REAL_Edge_Cases,,LBBG,4,18,,,,,,,,,,,,,1190,307,1201,307,1174,362,1226,365,5F4jCaqsMjU_095.png,True
images/5F4jCaqsMjU_097.png,1080,1920,real,REAL_Edge_Cases,,LBBG,4,14,,,,,,,,,,,,,757,329,772,330,710,398,786,399,5F4jCaqsMjU_097.png,True
images/5F4jCaqsMjU_099.png,1080,1920,real,REAL_Edge_Cases,,LBBG,4,10,,,,,,,,,,,,,774,295,759,296,815,390,682,397,5F4jCaqsMjU_099.png,True
images/5F4jCaqsMjU_100.png,1080,1920,real,REAL_Edge_Cases,,LBBG,4,8,,,,,,,,,,,,,767,290,749,291,841,413,650,423,5F4jCaqsMjU_100.png,True
images/5F4jCaqsMjU_101.png,1080,1920,real,REAL_Edge_Cases,,LBBG,4,6,,,,,,,,,,,,,760,293,732,295,930,491,531,530,5F4jCaqsMjU_101.png,True
images/5gZzu5ojgMw_077.png,2160,3840,real,REAL_Edge_Cases,,LEMG,13,18,,,,,,,,,,,,,1406,554,1384,557,1447,639,1374,651,5gZzu5ojgMw_077.png,False
images/5gZzu5ojgMw_079.png,2160,3840,real,REAL_Edge_Cases,,LEMG,13,14,,,,,,,,,,,,,2402,547,2423,549,2352,651,2451,662,5gZzu5ojgMw_079.png,False
images/5gZzu5ojgMw_081.png,2160,3840,real,REAL_Edge_Cases,,LEMG,13,10,,,,,,,,,,,,,2402,547,2424,550,2293,672,2457,706,5gZzu5ojgMw_081.png,True
images/5gZzu5ojgMw_082.png,2160,3840,real,REAL_Edge_Cases,,LEMG,13,8,,,,,,,,,,,,,1426,566,1401,570,1591,712,1347,768,5gZzu5ojgMw_082.png,True
images/5gZzu5ojgMw_083.png,2160,3840,real,REAL_Edge_Cases,,LEMG,13,6,,,,,,,,,,,,,1413,534,1384,539,1710,772,1234,862,5gZzu5ojgMw_083.png,True
images/63jby_EMR9o_011.png,2160,3840,real,REAL_Edge_Cases,,KTME,36,26,,,,,,,,,,,,,2851,595,2836,598,2710,756,2669,767,63jby_EMR9o_011.png,False
images/63jby_EMR9o_014.png,2160,3840,real,REAL_Edge_Cases,,KTME,36,20,,,,,,,,,,,,,2404,767,2386,772,2375,894,2321,907,63jby_EMR9o_014.png,False
images/63jby_EMR9o_016.png,2160,3840,real,REAL_Edge_Cases,,KTME,36,16,,,,,,,,,,,,,1757,872,1776,877,1737,986,1810,1001,63jby_EMR9o_016.png,True
images/63jby_EMR9o_018.png,2160,3840,real,REAL_Edge_Cases,,KTME,36,12,,,,,,,,,,,,,1914,997,1936,997,1880,1110,1989,1115,63jby_EMR9o_018.png,True
images/63jby_EMR9o_019.png,2160,3840,real,REAL_Edge_Cases,,KTME,36,10,,,,,,,,,,,,,1885,1004,1860,1005,1943,1129,1794,1134,63jby_EMR9o_019.png,True
images/63jby_EMR9o_020.png,2160,3840,real,REAL_Edge_Cases,,KTME,36,8,,,,,,,,,,,,,1971,1016,1994,1016,1879,1155,2084,1160,63jby_EMR9o_020.png,True
images/63jby_EMR9o_021.png,2160,3840,real,REAL_Edge_Cases,,KTME,36,6,,,,,,,,,,,,,1797,1032,1823,1032,1985,1207,1622,1212,63jby_EMR9o_021.png,True
images/63jby_EMR9o_022.png,2160,3840,real,REAL_Edge_Cases,,KTME,36,4,,,,,,,,,,,,,2006,1056,2031,1056,1393,1470,2749,1485,63jby_EMR9o_022.png,True
images/7seTYkUymBE_044.png,2160,3840,real,REAL_Edge_Cases,,LKPR,24,8,rain,,,,,,,,,,,,1707,1057,1726,1057,1854,1225,1594,1230,7seTYkUymBE_044.png,True
images/7seTYkUymBE_045.png,2160,3840,real,REAL_Edge_Cases,,LKPR,24,6,rain,,,,,,,,,,,,2117,1061,2139,1061,1828,1353,2410,1362,7seTYkUymBE_045.png,True
images/86ghu0Dcaog_062.png,2160,3840,real,REAL_Edge_Cases,,EHAM,22,106,,,,,,,,,,,,,1930,1016,1938,1016,1926,1035,1937,1035,86ghu0Dcaog_062.png,False
images/86ghu0Dcaog_073.png,2160,3840,real,REAL_Edge_Cases,,EHAM,22,84,,,,,,,,,,,,,1885,1093,1895,1093,1880,1118,1894,1118,86ghu0Dcaog_073.png,False
images/86ghu0Dcaog_082.png,2160,3840,real,REAL_Edge_Cases,,EHAM,22,66,,,,,,,,,,,,,1898,1107,1910,1108,1892,1138,1910,1138,86ghu0Dcaog_082.png,False
images/86ghu0Dcaog_088.png,2160,3840,real,REAL_Edge_Cases,,EHAM,22,54,,,,,,,,,,,,,1867,1064,1881,1064,1861,1099,1882,1099,86ghu0Dcaog_088.png,True
images/86ghu0Dcaog_094.png,2160,3840,real,REAL_Edge_Cases,,EHAM,22,42,,,,,,,,,,,,,1970,1087,1986,1087,1964,1128,1993,1129,86ghu0Dcaog_094.png,False
images/86ghu0Dcaog_098.png,2160,3840,real,REAL_Edge_Cases,,EHAM,22,34,,,,,,,,,,,,,2004,1093,2020,1094,1994,1140,2031,1141,86ghu0Dcaog_098.png,False
images/86ghu0Dcaog_102.png,2160,3840,real,REAL_Edge_Cases,,EHAM,22,26,,,,,,,,,,,,,1813,1089,1832,1089,1791,1144,1840,1144,86ghu0Dcaog_102.png,True
images/86ghu0Dcaog_105.png,2160,3840,real,REAL_Edge_Cases,,EHAM,22,20,,,,,,,,,,,,,1804,1083,1825,1083,1844,1147,1779,1148,86ghu0Dcaog_105.png,True
images/86ghu0Dcaog_108.png,2160,3840,real,REAL_Edge_Cases,,EHAM,22,14,,,,,,,,,,,,,1998,1066,2022,1066,1961,1148,2065,1150,86ghu0Dcaog_108.png,True
images/86ghu0Dcaog_109.png,2160,3840,real,REAL_Edge_Cases,,EHAM,22,12,,,,,,,,,,,,,2009,1067,2035,1067,1960,1164,2091,1167,86ghu0Dcaog_109.png,True
images/86ghu0Dcaog_110.png,2160,3840,real,REAL_Edge_Cases,,EHAM,22,10,,,,,,,,,,,,,1809,1055,1837,1055,1901,1167,1730,1169,86ghu0Dcaog_110.png,True
images/86ghu0Dcaog_111.png,2160,3840,real,REAL_Edge_Cases,,EHAM,22,8,,,,,,,,,,,,,1832,1070,1803,1071,1678,1212,1929,1214,86ghu0Dcaog_111.png,True
images/86ghu0Dcaog_112.png,2160,3840,real,REAL_Edge_Cases,,EHAM,22,6,,,,,,,,,,,,,1994,1039,2026,1039,1799,1247,2267,1254,86ghu0Dcaog_112.png,True
images/8wENPdlrnoI_024.png,1080,1920,real,REAL_Edge_Cases,,EPWA,11,16,rain,,,,,,,,,,,,1141,476,1157,476,1182,537,1116,538,8wENPdlrnoI_024.png,False
images/8wENPdlrnoI_025.png,1080,1920,real,REAL_Edge_Cases,,EPWA,11,14,rain,,,,,,,,,,,,777,458,760,459,810,527,732,528,8wENPdlrnoI_025.png,False
images/8wENPdlrnoI_027.png,1080,1920,real,REAL_Edge_Cases,,EPWA,11,10,rain,,,,,,,,,,,,1152,470,1169,470,1089,559,1215,560,8wENPdlrnoI_027.png,True
images/8wENPdlrnoI_028.png,1080,1920,real,REAL_Edge_Cases,,EPWA,11,8,rain,,,,,,,,,,,,750,461,768,462,673,575,857,581,8wENPdlrnoI_028.png,True
images/8wENPdlrnoI_029.png,1080,1920,real,REAL_Edge_Cases,,EPWA,11,6,rain,,,,,,,,,,,,745,442,764,442,592,634,962,637,8wENPdlrnoI_029.png,True
images/BbCWbP7mD4k_023.png,2160,3840,real,REAL_Edge_Cases,,LFPG,26L,34,rain,,,,,,,,,,,,1942,1168,1967,1168,1933,1227,1975,1227,BbCWbP7mD4k_023.png,False
images/BbCWbP7mD4k_024.png,2160,3840,real,REAL_Edge_Cases,,LFPG,26L,32,rain,,,,,,,,,,,,713,694,739,694,759,769,698,770,BbCWbP7mD4k_024.png,True
images/BbCWbP7mD4k_028.png,2160,3840,real,REAL_Edge_Cases,,LFPG,26L,24,rain,,,,,,,,,,,,764,673,795,673,823,766,737,767,BbCWbP7mD4k_028.png,True
images/BbCWbP7mD4k_031.png,2160,3840,real,REAL_Edge_Cases,,LFPG,26L,18,rain,,,,,,,,,,,,3036,682,3072,683,2994,790,3105,793,BbCWbP7mD4k_031.png,True
images/BbCWbP7mD4k_033.png,2160,3840,real,REAL_Edge_Cases,,LFPG,26L,14,rain,,,,,,,,,,,,3010,691,3043,692,2941,821,3096,826,BbCWbP7mD4k_033.png,True
images/BbCWbP7mD4k_035.png,2160,3840,real,REAL_Edge_Cases,,LFPG,26L,10,rain,,,,,,,,,,,,819,650,861,650,974,814,729,826,BbCWbP7mD4k_035.png,True
images/BbCWbP7mD4k_036.png,2160,3840,real,REAL_Edge_Cases,,LFPG,26L,8,rain,,,,,,,,,,,,837,597,883,599,677,809,1031,816,BbCWbP7mD4k_036.png,True
images/BbCWbP7mD4k_037.png,2160,3840,real,REAL_Edge_Cases,,LFPG,26L,6,rain,,,,,,,,,,,,806,635,854,635,1145,943,521,966,BbCWbP7mD4k_037.png,True
images/BgfXAH3Rctw_018.png,1080,1920,real,REAL_Edge_Cases,,VHHH,25R,14,,,,,,,,,,,,,1046,508,1056,509,1042,542,1068,542,BgfXAH3Rctw_018.png,False
images/BgfXAH3Rctw_020.png,1080,1920,real,REAL_Edge_Cases,,VHHH,25R,10,,,,,,,,,,,,,877,497,888,497,863,539,901,539,BgfXAH3Rctw_020.png,False
images/BgfXAH3Rctw_022.png,1080,1920,real,REAL_Edge_Cases,,VHHH,25R,6,,,,,,,,,,,,,1031,497,1043,497,1003,553,1073,554,BgfXAH3Rctw_022.png,False
images/BgfXAH3Rctw_023.png,1080,1920,real,REAL_Edge_Cases,,VHHH,25R,4,,,,,,,,,,,,,1033,481,1045,481,983,555,1098,556,BgfXAH3Rctw_023.png,True
images/BgfXAH3Rctw_024.png,1080,1920,real,REAL_Edge_Cases,,VHHH,25R,2,,,,,,,,,,,,,1049,479,1035,480,1226,646,879,648,BgfXAH3Rctw_024.png,True
images/BPbpj3b88-Y_054.png,2160,3840,real,REAL_Edge_Cases,,LKPR,24,10,,True,,,,,,,,,,,1767,883,1789,883,1654,1040,1857,1042,BPbpj3b88-Y_054.png,True
images/BPbpj3b88-Y_055.png,2160,3840,real,REAL_Edge_Cases,,LKPR,24,8,,True,,,,,,,,,,,1781,888,1813,889,1927,1095,1623,1096,BPbpj3b88-Y_055.png,True
images/BPbpj3b88-Y_056.png,2160,3840,real,REAL_Edge_Cases,,LKPR,24,6,,True,,,,,,,,,,,1791,876,1824,876,2124,1230,1482,1246,BPbpj3b88-Y_056.png,True
images/bw5dbSMcfH0_031.png,1080,1920,real,REAL_Edge_Cases,,KSFO,28L,8,,,,,,,,,,,,,815,521,835,522,896,593,760,594,bw5dbSMcfH0_031.png,True
images/bw5dbSMcfH0_032.png,1080,1920,real,REAL_Edge_Cases,,KSFO,28L,6,,,,,,,,,,,,,1089,525,1104,525,1201,623,997,625,bw5dbSMcfH0_032.png,True
images/bw5dbSMcfH0_033.png,1080,1920,real,REAL_Edge_Cases,,KSFO,28L,4,,,,,,,,,,,,,1087,523,1107,523,904,683,1304,699,bw5dbSMcfH0_033.png,True
images/CC-lSLLiueE_018.png,2160,3840,real,REAL_Edge_Cases,,LFPO,26,46,,,,,,,,,,,,,2047,1339,2061,1339,2068,1386,2044,1387,CC-lSLLiueE_018.png,False
images/CC-lSLLiueE_025.png,2160,3840,real,REAL_Edge_Cases,,LFPO,26,32,,,,,,,,,,,,,1800,1371,1816,1371,1791,1427,1828,1428,CC-lSLLiueE_025.png,False
images/CC-lSLLiueE_029.png,2160,3840,real,REAL_Edge_Cases,,LFPO,26,24,,,,,,,,,,,,,1793,1338,1810,1338,1770,1411,1823,1414,CC-lSLLiueE_029.png,True
images/CC-lSLLiueE_032.png,2160,3840,real,REAL_Edge_Cases,,LFPO,26,18,,,,,,,,,,,,,1762,1301,1782,1302,1734,1395,1813,1396,CC-lSLLiueE_032.png,True
images/CC-lSLLiueE_034.png,2160,3840,real,REAL_Edge_Cases,,LFPO,26,14,,,,,,,,,,,,,1803,1308,1825,1308,1761,1416,1868,1420,CC-lSLLiueE_034.png,True
images/CC-lSLLiueE_036.png,2160,3840,real,REAL_Edge_Cases,,LFPO,26,10,,,,,,,,,,,,,1812,1259,1835,1260,1738,1402,1914,1403,CC-lSLLiueE_036.png,True
images/CC-lSLLiueE_037.png,2160,3840,real,REAL_Edge_Cases,,LFPO,26,8,,,,,,,,,,,,,1793,1261,1815,1262,1669,1433,1929,1440,CC-lSLLiueE_037.png,True
images/CC-lSLLiueE_038.png,2160,3840,real,REAL_Edge_Cases,,LFPO,26,6,,,,,,,,,,,,,2066,1261,2041,1262,2333,1505,1825,1541,CC-lSLLiueE_038.png,True
images/ehbBccMhSQk_053.png,2160,3840,real,REAL_Edge_Cases,,CYYZ,23,46,,,,,,,,,,,,,1702,428,1715,428,1727,488,1696,490,ehbBccMhSQk_053.png,False
images/ehbBccMhSQk_059.png,2160,3840,real,REAL_Edge_Cases,,CYYZ,23,34,,,,,,,,,,,,,2125,413,2142,414,2105,489,2152,492,ehbBccMhSQk_059.png,False
images/ehbBccMhSQk_063.png,2160,3840,real,REAL_Edge_Cases,,CYYZ,23,26,,,,,,,,,,,,,2134,409,2154,410,2105,497,2172,502,ehbBccMhSQk_063.png,False
images/ehbBccMhSQk_066.png,2160,3840,real,REAL_Edge_Cases,,CYYZ,23,20,,,,,,,,,,,,,2133,391,2154,392,2088,498,2190,504,ehbBccMhSQk_066.png,False
images/ehbBccMhSQk_068.png,2160,3840,real,REAL_Edge_Cases,,CYYZ,23,16,,,,,,,,,,,,,1713,383,1691,384,1786,506,1629,517,ehbBccMhSQk_068.png,False
images/ehbBccMhSQk_070.png,2160,3840,real,REAL_Edge_Cases,,CYYZ,23,12,,,,,,,,,,,,,1711,392,1685,395,1830,547,1581,566,ehbBccMhSQk_070.png,False
images/ehbBccMhSQk_071.png,2160,3840,real,REAL_Edge_Cases,,CYYZ,23,10,,,,,,,,,,,,,1710,375,1684,377,1897,566,1532,591,ehbBccMhSQk_071.png,True
images/ehbBccMhSQk_072.png,2160,3840,real,REAL_Edge_Cases,,CYYZ,23,8,,,,,,,,,,,,,1702,362,1669,365,2022,624,1404,690,ehbBccMhSQk_072.png,False
images/f0GAssHxBI4_031.png,2160,3840,real,REAL_Edge_Cases,,LIMF,36,42,rain,,,,,,,,,,,,1242,894,1266,895,1225,971,1279,975,f0GAssHxBI4_031.png,False
images/f0GAssHxBI4_035.png,2160,3840,real,REAL_Edge_Cases,,LIMF,36,34,rain,,,,,,,,,,,,2605,898,2583,899,2633,984,2562,988,f0GAssHxBI4_035.png,False
images/f0GAssHxBI4_039.png,2160,3840,real,REAL_Edge_Cases,,LIMF,36,26,rain,,,,,,,,,,,,2607,893,2579,895,2648,995,2550,1001,f0GAssHxBI4_039.png,False
images/f0GAssHxBI4_042.png,2160,3840,real,REAL_Edge_Cases,,LIMF,36,20,rain,,,,,,,,,,,,1248,875,1282,877,1192,994,1327,1003,f0GAssHxBI4_042.png,False
images/f0GAssHxBI4_044.png,2160,3840,real,REAL_Edge_Cases,,LIMF,36,16,rain,,,,,,,,,,,,2576,853,2544,855,2657,995,2469,1010,f0GAssHxBI4_044.png,True
images/f0GAssHxBI4_046.png,2160,3840,real,REAL_Edge_Cases,,LIMF,36,12,rain,,,,,,,,,,,,2572,875,2533,877,2699,1062,2397,1075,f0GAssHxBI4_046.png,True
images/f0GAssHxBI4_047.png,2160,3840,real,REAL_Edge_Cases,,LIMF,36,10,rain,,,,,,,,,,,,1260,852,1295,854,1067,1086,1501,1109,f0GAssHxBI4_047.png,True
images/f0GAssHxBI4_048.png,2160,3840,real,REAL_Edge_Cases,,LIMF,36,8,rain,,,,,,,,,,,,2572,851,2533,852,2922,1197,2168,1218,f0GAssHxBI4_048.png,True
images/fB33KKArerU_044.png,1080,1920,real,REAL_Edge_Cases,,EGKK,8R,42,,,,,,,,,,,,,733,490,744,490,731,525,754,525,fB33KKArerU_044.png,True
images/fB33KKArerU_049.png,1080,1920,real,REAL_Edge_Cases,,EGKK,8R,32,,,,,,,,,,,,,1159,492,1171,492,1147,532,1178,532,fB33KKArerU_049.png,True
images/fB33KKArerU_052.png,1080,1920,real,REAL_Edge_Cases,,EGKK,8R,26,,,,,,,,,,,,,745,481,758,481,736,525,774,526,fB33KKArerU_052.png,True
images/fB33KKArerU_055.png,1080,1920,real,REAL_Edge_Cases,,EGKK,8R,20,,,,,,,,,,,,,742,496,756,496,726,547,779,547,fB33KKArerU_055.png,True
images/fB33KKArerU_057.png,1080,1920,real,REAL_Edge_Cases,,EGKK,8R,16,,,,,,,,,,,,,747,488,761,488,727,547,795,547,fB33KKArerU_057.png,True
images/fB33KKArerU_058.png,1080,1920,real,REAL_Edge_Cases,,EGKK,8R,14,,,,,,,,,,,,,1177,484,1194,484,1136,547,1220,549,fB33KKArerU_058.png,True
images/fB33KKArerU_059.png,1080,1920,real,REAL_Edge_Cases,,EGKK,8R,12,,,,,,,,,,,,,722,480,739,480,791,551,685,552,fB33KKArerU_059.png,True
images/fB33KKArerU_060.png,1080,1920,real,REAL_Edge_Cases,,EGKK,8R,10,,,,,,,,,,,,,1195,492,1177,493,1249,576,1107,577,fB33KKArerU_060.png,True
images/fB33KKArerU_061.png,1080,1920,real,REAL_Edge_Cases,,EGKK,8R,8,,,,,,,,,,,,,734,481,752,482,644,588,856,593,fB33KKArerU_061.png,True
images/gIyU3lcDk00_032.png,1080,1920,real,REAL_Edge_Cases,,EBBR,25L,10,rain,,,,,,,,,,,,987,399,1014,399,1115,529,909,540,gIyU3lcDk00_032.png,True
images/gIyU3lcDk00_033.png,1080,1920,real,REAL_Edge_Cases,,EBBR,25L,8,rain,,,,,,,,,,,,961,358,994,358,787,580,1170,582,gIyU3lcDk00_033.png,True
images/g_NxOtts94o_007.png,1080,1920,real,REAL_Edge_Cases,,SBSP,9R,10,rain,,,,,,,,,,,,978,496,1003,496,1053,603,925,605,g_NxOtts94o_007.png,False
images/g_NxOtts94o_008.png,1080,1920,real,REAL_Edge_Cases,,SBSP,9R,8,rain,,,,,,,,,,,,917,511,946,511,847,638,1018,639,g_NxOtts94o_008.png,False
images/g_NxOtts94o_009.png,1080,1920,real,REAL_Edge_Cases,,SBSP,9R,6,rain,,,,,,,,,,,,993,497,967,498,1120,673,858,681,g_NxOtts94o_009.png,False
images/g_NxOtts94o_010.png,1080,1920,real,REAL_Edge_Cases,,SBSP,9R,4,rain,,,,,,,,,,,,939,491,969,491,631,838,1253,852,g_NxOtts94o_010.png,True
images/j9Fw9Tx9XVY_054.png,2160,3840,real,REAL_Edge_Cases,,LGKR,27,92,,,,,,,,,,,,,1084,773,1097,773,1084,813,1101,813,j9Fw9Tx9XVY_054.png,False
images/j9Fw9Tx9XVY_072.png,2160,3840,real,REAL_Edge_Cases,,LGKR,27,56,,,,,,,,,,,,,2799,738,2816,738,2792,790,2821,791,j9Fw9Tx9XVY_072.png,False
images/j9Fw9Tx9XVY_080.png,2160,3840,real,REAL_Edge_Cases,,LGKR,27,40,,,,,,,,,,,,,1100,698,1081,699,1069,763,1112,763,j9Fw9Tx9XVY_080.png,False
images/j9Fw9Tx9XVY_085.png,2160,3840,real,REAL_Edge_Cases,,LGKR,27,30,,,,,,,,,,,,,2755,728,2777,729,2732,804,2789,806,j9Fw9Tx9XVY_085.png,False
images/j9Fw9Tx9XVY_089.png,2160,3840,real,REAL_Edge_Cases,,LGKR,27,22,,,,,,,,,,,,,1065,734,1091,734,1128,830,1045,832,j9Fw9Tx9XVY_089.png,True
images/j9Fw9Tx9XVY_092.png,2160,3840,real,REAL_Edge_Cases,,LGKR,27,16,,,,,,,,,,,,,1051,694,1080,694,1135,807,1016,810,j9Fw9Tx9XVY_092.png,True
images/j9Fw9Tx9XVY_094.png,2160,3840,real,REAL_Edge_Cases,,LGKR,27,12,,,,,,,,,,,,,2773,703,2804,704,2694,840,2864,845,j9Fw9Tx9XVY_094.png,True
images/j9Fw9Tx9XVY_096.png,2160,3840,real,REAL_Edge_Cases,,LGKR,27,8,,,,,,,,,,,,,2771,716,2806,716,2633,909,2940,917,j9Fw9Tx9XVY_096.png,True
images/j9Fw9Tx9XVY_097.png,2160,3840,real,REAL_Edge_Cases,,LGKR,27,6,,,,,,,,,,,,,1027,707,1076,707,1306,988,810,1003,j9Fw9Tx9XVY_097.png,True
images/JgKWRjH2O10_051.png,1080,1920,real,REAL_Edge_Cases,,LFPG,26L,50,rain,,,,,,,,,,,,619,528,608,529,604,552,621,552,JgKWRjH2O10_051.png,False
images/JgKWRjH2O10_059.png,1080,1920,real,REAL_Edge_Cases,,LFPG,26L,34,rain,,,,,,,,,,,,1292,535,1304,535,1285,564,1311,564,JgKWRjH2O10_059.png,True
images/JgKWRjH2O10_064.png,1080,1920,real,REAL_Edge_Cases,,LFPG,26L,24,rain,,,,,,,,,,,,1264,527,1277,527,1253,563,1291,563,JgKWRjH2O10_064.png,False
images/JgKWRjH2O10_067.png,1080,1920,real,REAL_Edge_Cases,,LFPG,26L,18,rain,,,,,,,,,,,,646,526,630,527,666,568,612,570,JgKWRjH2O10_067.png,True
images/JgKWRjH2O10_069.png,1080,1920,real,REAL_Edge_Cases,,LFPG,26L,14,rain,,,,,,,,,,,,636,521,652,521,683,569,609,574,JgKWRjH2O10_069.png,True
images/JgKWRjH2O10_071.png,1080,1920,real,REAL_Edge_Cases,,LFPG,26L,10,rain,,,,,,,,,,,,636,524,654,524,706,587,584,591,JgKWRjH2O10_071.png,True
images/JgKWRjH2O10_072.png,1080,1920,real,REAL_Edge_Cases,,LFPG,26L,8,rain,,,,,,,,,,,,1251,537,1271,537,1174,620,1353,626,JgKWRjH2O10_072.png,True
images/JgKWRjH2O10_073.png,1080,1920,real,REAL_Edge_Cases,,LFPG,26L,6,rain,,,,,,,,,,,,1244,522,1264,522,1091,662,1439,677,JgKWRjH2O10_073.png,True
images/K2IB4BAcTOg_017.png,720,1280,real,REAL_Edge_Cases,,ESSA,26,64,,,,,,,,,,,,,350,145,356,145,345,164,356,165,K2IB4BAcTOg_017.png,False
images/K2IB4BAcTOg_027.png,720,1280,real,REAL_Edge_Cases,,ESSA,26,44,,,,,,,,,,,,,940,142,947,142,954,167,938,168,K2IB4BAcTOg_027.png,False
images/K2IB4BAcTOg_033.png,720,1280,real,REAL_Edge_Cases,,ESSA,26,32,,,,,,,,,,,,,312,138,320,139,303,168,324,169,K2IB4BAcTOg_033.png,True
images/K2IB4BAcTOg_037.png,720,1280,real,REAL_Edge_Cases,,ESSA,26,24,,,,,,,,,,,,,273,157,283,157,261,191,292,192,K2IB4BAcTOg_037.png,True
images/K2IB4BAcTOg_040.png,720,1280,real,REAL_Edge_Cases,,ESSA,26,18,,,,,,,,,,,,,276,147,287,147,258,189,298,191,K2IB4BAcTOg_040.png,True
images/K2IB4BAcTOg_042.png,720,1280,real,REAL_Edge_Cases,,ESSA,26,14,,,,,,,,,,,,,279,125,289,125,251,176,309,179,K2IB4BAcTOg_042.png,True
images/K2IB4BAcTOg_044.png,720,1280,real,REAL_Edge_Cases,,ESSA,26,10,,,,,,,,,,,,,278,129,290,130,230,197,328,203,K2IB4BAcTOg_044.png,True
images/K2IB4BAcTOg_045.png,720,1280,real,REAL_Edge_Cases,,ESSA,26,8,,,,,,,,,,,,,1006,133,993,134,1079,224,927,230,K2IB4BAcTOg_045.png,True
images/K2IB4BAcTOg_046.png,720,1280,real,REAL_Edge_Cases,,ESSA,26,6,,,,,,,,,,,,,264,132,279,132,106,300,425,307,K2IB4BAcTOg_046.png,True
images/kdM59GTqE0s_045.png,2160,3840,real,REAL_Edge_Cases,,KLAX,24R,52,rain,,,,,,,,,,,,1616,1047,1629,1047,1613,1082,1634,1082,kdM59GTqE0s_045.png,False
images/kdM59GTqE0s_054.png,2160,3840,real,REAL_Edge_Cases,,KLAX,24R,34,rain,,,,,,,,,,,,1615,1034,1630,1034,1640,1083,1610,1084,kdM59GTqE0s_054.png,True
images/kdM59GTqE0s_056.png,2160,3840,real,REAL_Edge_Cases,,KLAX,24R,30,rain,,,,,,,,,,,,1616,1033,1631,1034,1644,1088,1608,1089,kdM59GTqE0s_056.png,True
images/kdM59GTqE0s_058.png,2160,3840,real,REAL_Edge_Cases,,KLAX,24R,26,rain,,,,,,,,,,,,1626,1030,1610,1031,1644,1091,1600,1093,kdM59GTqE0s_058.png,True
images/kdM59GTqE0s_060.png,2160,3840,real,REAL_Edge_Cases,,KLAX,24R,22,rain,,,,,,,,,,,,2224,1025,2240,1026,2200,1093,2250,1096,kdM59GTqE0s_060.png,True
images/kdM59GTqE0s_062.png,2160,3840,real,REAL_Edge_Cases,,KLAX,24R,18,rain,,,,,,,,,,,,1590,1023,1607,1023,1642,1101,1571,1104,kdM59GTqE0s_062.png,True
images/kdM59GTqE0s_064.png,2160,3840,real,REAL_Edge_Cases,,KLAX,24R,14,rain,,,,,,,,,,,,1576,1019,1595,1019,1647,1113,1545,1119,kdM59GTqE0s_064.png,True
images/kdM59GTqE0s_065.png,2160,3840,real,REAL_Edge_Cases,,KLAX,24R,12,rain,,,,,,,,,,,,1590,1018,1572,1019,1660,1129,1528,1136,kdM59GTqE0s_065.png,True
images/kdM59GTqE0s_066.png,2160,3840,real,REAL_Edge_Cases,,KLAX,24R,10,rain,,,,,,,,,,,,1590,1017,1570,1018,1688,1156,1499,1165,kdM59GTqE0s_066.png,True
images/kdM59GTqE0s_067.png,2160,3840,real,REAL_Edge_Cases,,KLAX,24R,8,rain,,,,,,,,,,,,2244,1014,2267,1015,2076,1219,2401,1237,kdM59GTqE0s_067.png,True
images/kuCuyhYPyXM_079.png,2160,3840,real,REAL_Edge_Cases,,LSZS,3,94,,,,,,,,,,,,,2143,1107,2154,1107,2084,1137,2097,1138,kuCuyhYPyXM_079.png,False
images/kuCuyhYPyXM_087.png,2160,3840,real,REAL_Edge_Cases,,LSZS,3,78,,,,,,,,,,,,,1648,1075,1661,1075,1710,1112,1726,1112,kuCuyhYPyXM_087.png,False
images/kuCuyhYPyXM_097.png,2160,3840,real,REAL_Edge_Cases,,LSZS,3,58,,,,,,,,,,,,,2156,1099,2171,1099,2083,1146,2108,1147,kuCuyhYPyXM_097.png,False
images/kuCuyhYPyXM_103.png,2160,3840,real,REAL_Edge_Cases,,LSZS,3,46,,,,,,,,,,,,,2280,1045,2301,1047,2208,1096,2240,1098,kuCuyhYPyXM_103.png,False
images/kuCuyhYPyXM_108.png,2160,3840,real,REAL_Edge_Cases,,LSZS,3,36,,,,,,,,,,,,,2252,1040,2275,1040,2204,1106,2248,1106,kuCuyhYPyXM_108.png,False
images/kuCuyhYPyXM_112.png,2160,3840,real,REAL_Edge_Cases,,LSZS,3,28,,,,,,,,,,,,,2050,1063,2075,1063,2072,1140,2015,1141,kuCuyhYPyXM_112.png,False
images/kuCuyhYPyXM_115.png,2160,3840,real,REAL_Edge_Cases,,LSZS,3,22,,,,,,,,,,,,,2084,1068,2110,1068,2053,1156,2128,1157,kuCuyhYPyXM_115.png,False
images/kuCuyhYPyXM_118.png,2160,3840,real,REAL_Edge_Cases,,LSZS,3,16,,,,,,,,,,,,,1828,1058,1859,1059,1780,1161,1891,1163,kuCuyhYPyXM_118.png,False
images/kuCuyhYPyXM_121.png,2160,3840,real,REAL_Edge_Cases,,LSZS,3,10,,,,,,,,,,,,,1880,1047,1842,1050,1997,1183,1776,1198,kuCuyhYPyXM_121.png,True
images/kuCuyhYPyXM_122.png,2160,3840,real,REAL_Edge_Cases,,LSZS,3,8,,,,,,,,,,,,,2013,1040,2053,1043,1829,1202,2158,1229,kuCuyhYPyXM_122.png,True
images/kuCuyhYPyXM_123.png,2160,3840,real,REAL_Edge_Cases,,LSZS,3,6,,,,,,,,,,,,,1821,1049,1781,1051,2237,1289,1525,1348,kuCuyhYPyXM_123.png,True
images/LAUBlqZNeiM_021.png,1080,1920,real,REAL_Edge_Cases,,LSZH,14,94,,,,,,,,,,,,,1209,464,1219,464,1206,493,1222,493,LAUBlqZNeiM_021.png,False
images/LAUBlqZNeiM_039.png,1080,1920,real,REAL_Edge_Cases,,LSZH,14,58,,,,,,,,,,,,,957,381,969,381,952,422,976,422,LAUBlqZNeiM_039.png,False
images/LAUBlqZNeiM_051.png,1080,1920,real,REAL_Edge_Cases,,LSZH,14,34,,,,,,,,,,,,,1483,317,1502,317,1463,375,1512,376,LAUBlqZNeiM_051.png,True
images/LAUBlqZNeiM_053.png,1080,1920,real,REAL_Edge_Cases,,LSZH,14,30,,,,,,,,,,,,,478,390,496,390,525,449,469,451,LAUBlqZNeiM_053.png,True
images/LAUBlqZNeiM_056.png,1080,1920,real,REAL_Edge_Cases,,LSZH,14,24,,,,,,,,,,,,,1799,323,1819,324,1750,398,1833,401,LAUBlqZNeiM_056.png,True
images/LAUBlqZNeiM_058.png,1080,1920,real,REAL_Edge_Cases,,LSZH,14,20,,,,,,,,,,,,,1656,264,1680,265,1591,346,1691,352,LAUBlqZNeiM_058.png,False
images/LbvDOdTVUAU_028.png,2160,3840,real,REAL_Edge_Cases,,EPWA,11,20,,,,,,,,,,,,,1725,971,1742,971,1681,1058,1785,1060,LbvDOdTVUAU_028.png,False
images/LbvDOdTVUAU_031.png,2160,3840,real,REAL_Edge_Cases,,EPWA,11,14,,,,,,,,,,,,,1707,921,1732,921,1623,1044,1812,1050,LbvDOdTVUAU_031.png,False
images/LbvDOdTVUAU_032.png,2160,3840,real,REAL_Edge_Cases,,EPWA,11,12,,,,,,,,,,,,,1693,891,1725,892,1568,1035,1832,1041,LbvDOdTVUAU_032.png,True
images/LbvDOdTVUAU_033.png,2160,3840,real,REAL_Edge_Cases,,EPWA,11,10,,,,,,,,,,,,,2117,889,2092,890,2348,1083,1912,1102,LbvDOdTVUAU_033.png,True
images/LbvDOdTVUAU_034.png,2160,3840,real,REAL_Edge_Cases,,EPWA,11,8,,,,,,,,,,,,,1706,889,1741,892,988,1278,2228,1344,LbvDOdTVUAU_034.png,True
images/M0QvZ0fsWBE_066.png,2160,3840,real,REAL_Edge_Cases,,ZBAA,36R,26,,True,,,,,,,,,,,1805,1129,1823,1129,1776,1213,1848,1213,M0QvZ0fsWBE_066.png,False
images/M0QvZ0fsWBE_069.png,2160,3840,real,REAL_Edge_Cases,,ZBAA,36R,20,,True,,,,,,,,,,,2015,1106,2037,1106,1979,1206,2076,1206,M0QvZ0fsWBE_069.png,False
images/M0QvZ0fsWBE_071.png,2160,3840,real,REAL_Edge_Cases,,ZBAA,36R,16,,True,,,,,,,,,,,2017,1106,2036,1106,1959,1222,2092,1222,M0QvZ0fsWBE_071.png,False
images/M0QvZ0fsWBE_072.png,2160,3840,real,REAL_Edge_Cases,,ZBAA,36R,14,,True,,,,,,,,,,,2029,1104,2007,1105,2101,1232,1937,1233,M0QvZ0fsWBE_072.png,False
images/M0QvZ0fsWBE_073.png,2160,3840,real,REAL_Edge_Cases,,ZBAA,36R,12,,True,,,,,,,,,,,1821,1103,1843,1103,1940,1249,1726,1251,M0QvZ0fsWBE_073.png,False
images/M0QvZ0fsWBE_074.png,2160,3840,real,REAL_Edge_Cases,,ZBAA,36R,10,,True,,,,,,,,,,,2002,1105,2027,1105,2177,1285,1867,1286,M0QvZ0fsWBE_074.png,True
images/M0QvZ0fsWBE_075.png,2160,3840,real,REAL_Edge_Cases,,ZBAA,36R,8,,True,,,,,,,,,,,2012,1097,1988,1098,2300,1355,1745,1364,M0QvZ0fsWBE_075.png,True
images/N6bE8RxCnHs_023.png,1080,1920,real,REAL_Edge_Cases,,KORD,27L,10,,,,,,,,,,,,,920,640,939,641,865,743,990,748,N6bE8RxCnHs_023.png,True
images/N6bE8RxCnHs_024.png,1080,1920,real,REAL_Edge_Cases,,KORD,27L,8,,,,,,,,,,,,,919,649,934,649,830,771,1009,778,N6bE8RxCnHs_024.png,True
images/N6bE8RxCnHs_025.png,1080,1920,real,REAL_Edge_Cases,,KORD,27L,6,,,,,,,,,,,,,920,649,941,650,767,831,1090,841,N6bE8RxCnHs_025.png,True
images/ocPXQDNk-pk_046.png,1080,1920,real,REAL_Edge_Cases,,LLBG,26,30,,,,,,,,,,,,,1236,505,1249,505,1224,547,1257,547,ocPXQDNk-pk_046.png,False
images/ocPXQDNk-pk_049.png,1080,1920,real,REAL_Edge_Cases,,LLBG,26,24,,,,,,,,,,,,,1234,481,1247,481,1259,530,1217,531,ocPXQDNk-pk_049.png,False
images/ocPXQDNk-pk_052.png,1080,1920,real,REAL_Edge_Cases,,LLBG,26,18,,,,,,,,,,,,,1257,484,1269,484,1288,546,1232,547,ocPXQDNk-pk_052.png,False
images/ocPXQDNk-pk_054.png,1080,1920,real,REAL_Edge_Cases,,LLBG,26,14,,,,,,,,,,,,,1276,476,1289,476,1240,548,1317,548,ocPXQDNk-pk_054.png,False
images/ocPXQDNk-pk_056.png,1080,1920,real,REAL_Edge_Cases,,LLBG,26,10,,,,,,,,,,,,,629,487,643,487,575,576,700,581,ocPXQDNk-pk_056.png,True
images/ocPXQDNk-pk_057.png,1080,1920,real,REAL_Edge_Cases,,LLBG,26,8,,,,,,,,,,,,,1283,497,1297,497,1373,613,1189,614,ocPXQDNk-pk_057.png,True
images/ocPXQDNk-pk_058.png,1080,1920,real,REAL_Edge_Cases,,LLBG,26,6,,,,,,,,,,,,,1296,495,1279,496,1089,683,1436,683,ocPXQDNk-pk_058.png,True
images/OkJ2xjQQ0Dc_020.png,1080,1920,real,REAL_Edge_Cases,,LSGG,23,16,,,,,,,,,,,,,836,343,847,343,809,422,886,423,OkJ2xjQQ0Dc_020.png,True
images/OkJ2xjQQ0Dc_022.png,1080,1920,real,REAL_Edge_Cases,,LSGG,23,12,,,,,,,,,,,,,840,319,851,320,784,421,909,426,OkJ2xjQQ0Dc_022.png,True
images/OkJ2xjQQ0Dc_023.png,1080,1920,real,REAL_Edge_Cases,,LSGG,23,10,,,,,,,,,,,,,1060,318,1071,318,1151,443,974,447,OkJ2xjQQ0Dc_023.png,True
images/OkJ2xjQQ0Dc_024.png,1080,1920,real,REAL_Edge_Cases,,LSGG,23,8,,,,,,,,,,,,,851,332,862,332,706,519,1020,519,OkJ2xjQQ0Dc_024.png,True
images/OZM_nfPEp-s_078.png,2160,3840,real,REAL_Edge_Cases,,LGKR,34,52,,,,,,,,,,,,,1997,663,2011,663,1994,719,2023,720,OZM_nfPEp-s_078.png,True
images/OZM_nfPEp-s_084.png,2160,3840,real,REAL_Edge_Cases,,LGKR,34,40,,,,,,,,,,,,,2090,686,2107,687,2080,755,2118,755,OZM_nfPEp-s_084.png,True
images/OZM_nfPEp-s_089.png,2160,3840,real,REAL_Edge_Cases,,LGKR,34,30,,,,,,,,,,,,,1767,699,1790,699,1800,778,1747,779,OZM_nfPEp-s_089.png,True
images/OZM_nfPEp-s_092.png,2160,3840,real,REAL_Edge_Cases,,LGKR,34,24,,,,,,,,,,,,,2016,702,2041,702,1996,791,2064,792,OZM_nfPEp-s_092.png,True
images/OZM_nfPEp-s_095.png,2160,3840,real,REAL_Edge_Cases,,LGKR,34,18,,,,,,,,,,,,,2023,694,2053,694,1993,806,2088,808,OZM_nfPEp-s_095.png,True
images/OZM_nfPEp-s_097.png,2160,3840,real,REAL_Edge_Cases,,LGKR,34,14,,,,,,,,,,,,,2023,681,2054,681,1971,814,2105,814,OZM_nfPEp-s_097.png,True
images/OZM_nfPEp-s_099.png,2160,3840,real,REAL_Edge_Cases,,LGKR,34,10,,,,,,,,,,,,,2047,672,2083,672,1945,846,2166,852,OZM_nfPEp-s_099.png,True
images/OZM_nfPEp-s_100.png,2160,3840,real,REAL_Edge_Cases,,LGKR,34,8,,,,,,,,,,,,,1740,671,1776,671,1934,899,1604,906,OZM_nfPEp-s_100.png,True
images/OZM_nfPEp-s_101.png,2160,3840,real,REAL_Edge_Cases,,LGKR,34,6,,,,,,,,,,,,,2076,663,2116,664,1766,1046,2398,1056,OZM_nfPEp-s_101.png,True
images/pMZLghaDwos_063.png,1080,1920,real,REAL_Edge_Cases,,FMEE,14,14,rain,,,,,,,,,,,,1060,673,1084,674,1044,725,1091,727,pMZLghaDwos_063.png,False
images/pMZLghaDwos_064.png,1080,1920,real,REAL_Edge_Cases,,FMEE,14,12,rain,,,,,,,,,,,,1392,411,1408,411,1367,483,1431,485,pMZLghaDwos_064.png,True
images/pMZLghaDwos_066.png,1080,1920,real,REAL_Edge_Cases,,FMEE,14,8,rain,,,,,,,,,,,,517,381,533,381,581,484,474,487,pMZLghaDwos_066.png,True
images/pMZLghaDwos_067.png,1080,1920,real,REAL_Edge_Cases,,FMEE,14,6,rain,,,,,,,,,,,,513,383,533,383,608,516,447,518,pMZLghaDwos_067.png,True
images/pMZLghaDwos_068.png,1080,1920,real,REAL_Edge_Cases,,FMEE,14,4,rain,,,,,,,,,,,,1380,383,1404,383,1228,604,1560,620,pMZLghaDwos_068.png,True
images/qqOLCB3Qy6c_059.png,1080,1920,real,REAL_Edge_Cases,,LFPG,8R,18,,,,,,,,,,,,,1187,637,1211,637,1153,709,1243,709,qqOLCB3Qy6c_059.png,True
images/qqOLCB3Qy6c_061.png,1080,1920,real,REAL_Edge_Cases,,LFPG,8R,14,,,,,,,,,,,,,1139,606,1115,607,1194,695,1070,698,qqOLCB3Qy6c_061.png,True
images/qqOLCB3Qy6c_063.png,1080,1920,real,REAL_Edge_Cases,,LFPG,8R,10,,,,,,,,,,,,,1115,613,1088,614,1201,737,999,738,qqOLCB3Qy6c_063.png,True
images/qqOLCB3Qy6c_064.png,1080,1920,real,REAL_Edge_Cases,,LFPG,8R,8,,,,,,,,,,,,,1109,600,1136,601,958,756,1258,768,qqOLCB3Qy6c_064.png,True
images/qqOLCB3Qy6c_065.png,1080,1920,real,REAL_Edge_Cases,,LFPG,8R,6,,,,,,,,,,,,,784,620,755,622,1094,865,515,915,qqOLCB3Qy6c_065.png,True
images/qX7MvzaGVAM_037.png,2160,3840,real,REAL_Edge_Cases,,KLAX,25L,22,,True,,,,,,,,,,,1154,937,1195,938,1106,1087,1232,1089,qX7MvzaGVAM_037.png,True
images/qX7MvzaGVAM_040.png,2160,3840,real,REAL_Edge_Cases,,KLAX,25L,16,,True,,,,,,,,,,,2664,875,2623,876,2733,1057,2554,1058,qX7MvzaGVAM_040.png,True
images/qX7MvzaGVAM_042.png,2160,3840,real,REAL_Edge_Cases,,KLAX,25L,12,,True,,,,,,,,,,,2641,881,2690,881,2535,1089,2785,1094,qX7MvzaGVAM_042.png,True
images/qX7MvzaGVAM_044.png,2160,3840,real,REAL_Edge_Cases,,KLAX,25L,8,,True,,,,,,,,,,,2651,913,2706,913,2883,1195,2470,1197,qX7MvzaGVAM_044.png,True
images/qX7MvzaGVAM_045.png,2160,3840,real,REAL_Edge_Cases,,KLAX,25L,6,,True,,,,,,,,,,,2650,938,2708,938,2360,1306,2978,1321,qX7MvzaGVAM_045.png,True
images/qX7MvzaGVAM_046.png,2160,3840,real,REAL_Edge_Cases,,KLAX,25L,4,,True,,,,,,,,,,,2721,909,2663,910,2083,1534,3320,1561,qX7MvzaGVAM_046.png,True
images/sLFFJty66cM_032.png,720,1280,real,REAL_Edge_Cases,,SKBO,13L,26,,,,,,,,,,,,,424,379,432,379,420,410,439,410,sLFFJty66cM_032.png,False
images/sLFFJty66cM_035.png,720,1280,real,REAL_Edge_Cases,,SKBO,13L,20,,,,,,,,,,,,,439,382,448,382,462,419,436,421,sLFFJty66cM_035.png,False
images/sLFFJty66cM_037.png,720,1280,real,REAL_Edge_Cases,,SKBO,13L,16,,,,,,,,,,,,,431,378,422,379,453,419,419,422,sLFFJty66cM_037.png,False
images/sLFFJty66cM_039.png,720,1280,real,REAL_Edge_Cases,,SKBO,13L,12,,,,,,,,,,,,,416,374,425,374,455,426,403,429,sLFFJty66cM_039.png,True
images/sLFFJty66cM_040.png,720,1280,real,REAL_Edge_Cases,,SKBO,13L,10,,,,,,,,,,,,,417,372,426,372,466,433,396,435,sLFFJty66cM_040.png,True
images/sLFFJty66cM_041.png,720,1280,real,REAL_Edge_Cases,,SKBO,13L,8,,,,,,,,,,,,,849,369,860,370,793,445,897,451,sLFFJty66cM_041.png,True
images/T_ZhAXDYxDA_052.png,720,1280,real,REAL_Edge_Cases,,LPPR,17,56,,,,,,,,,,,,,809,319,803,320,816,343,804,345,T_ZhAXDYxDA_052.png,False
images/T_ZhAXDYxDA_059.png,720,1280,real,REAL_Edge_Cases,,LPPR,17,42,,,,,,,,,,,,,461,301,467,302,452,330,467,333,T_ZhAXDYxDA_059.png,False
images/T_ZhAXDYxDA_064.png,720,1280,real,REAL_Edge_Cases,,LPPR,17,32,,,,,,,,,,,,,463,310,469,310,450,344,470,347,T_ZhAXDYxDA_064.png,False
images/T_ZhAXDYxDA_068.png,720,1280,real,REAL_Edge_Cases,,LPPR,17,24,,,,,,,,,,,,,472,284,479,285,453,324,480,330,T_ZhAXDYxDA_068.png,False
images/T_ZhAXDYxDA_071.png,720,1280,real,REAL_Edge_Cases,,LPPR,17,18,,,,,,,,,,,,,469,287,478,288,447,332,485,339,T_ZhAXDYxDA_071.png,False
images/T_ZhAXDYxDA_073.png,720,1280,real,REAL_Edge_Cases,,LPPR,17,14,,,,,,,,,,,,,465,287,473,288,438,338,490,346,T_ZhAXDYxDA_073.png,False
images/T_ZhAXDYxDA_075.png,720,1280,real,REAL_Edge_Cases,,LPPR,17,10,,,,,,,,,,,,,450,330,457,331,409,392,489,405,T_ZhAXDYxDA_075.png,True
images/T_ZhAXDYxDA_076.png,720,1280,real,REAL_Edge_Cases,,LPPR,17,8,,,,,,,,,,,,,447,297,456,298,388,377,502,398,T_ZhAXDYxDA_076.png,True
images/T_ZhAXDYxDA_077.png,720,1280,real,REAL_Edge_Cases,,LPPR,17,6,,,,,,,,,,,,,829,288,839,288,927,422,722,432,T_ZhAXDYxDA_077.png,True
images/U19gBlXcIIE_028.png,1080,1920,real,REAL_Edge_Cases,,FAOR,3R,8,,,,,,,,,,,,,947,368,984,369,1122,514,831,516,U19gBlXcIIE_028.png,True
images/U19gBlXcIIE_029.png,1080,1920,real,REAL_Edge_Cases,,FAOR,3R,6,,,,,,,,,,,,,978,382,933,383,1259,638,610,639,U19gBlXcIIE_029.png,True
images/UPM0tQr3yrw_103.png,2160,3840,real,REAL_Edge_Cases,,CYYR,26,20,,,,,,,,,,,,,2286,671,2267,677,2187,918,2095,937,UPM0tQr3yrw_103.png,False
images/UPM0tQr3yrw_106.png,2160,3840,real,REAL_Edge_Cases,,CYYR,26,14,,,,,,,,,,,,,1835,839,1860,841,1867,1062,2040,1074,UPM0tQr3yrw_106.png,True
images/UPM0tQr3yrw_108.png,2160,3840,real,REAL_Edge_Cases,,CYYR,26,10,,,,,,,,,,,,,1985,899,2014,903,1914,1120,2193,1155,UPM0tQr3yrw_108.png,False
images/UPM0tQr3yrw_109.png,2160,3840,real,REAL_Edge_Cases,,CYYR,26,8,,,,,,,,,,,,,2095,953,2125,956,1945,1188,2353,1225,UPM0tQr3yrw_109.png,False
images/UPM0tQr3yrw_110.png,2160,3840,real,REAL_Edge_Cases,,CYYR,26,6,,,,,,,,,,,,,2131,958,2167,961,1888,1242,2529,1293,UPM0tQr3yrw_110.png,False
images/UPM0tQr3yrw_111.png,2160,3840,real,REAL_Edge_Cases,,CYYR,26,4,,,,,,,,,,,,,2198,962,2236,964,1641,1382,2926,1427,UPM0tQr3yrw_111.png,False
images/vY2fR3VgZLo_038.png,1080,1920,real,REAL_Edge_Cases,,VVTS,25R,10,,,,,,,,,,,,,1391,552,1406,552,1332,645,1450,647,vY2fR3VgZLo_038.png,True
images/vY2fR3VgZLo_039.png,1080,1920,real,REAL_Edge_Cases,,VVTS,25R,8,,,,,,,,,,,,,1392,545,1406,545,1294,661,1475,669,vY2fR3VgZLo_039.png,True
images/vY2fR3VgZLo_040.png,1080,1920,real,REAL_Edge_Cases,,VVTS,25R,6,,,,,,,,,,,,,509,543,521,543,722,741,339,763,vY2fR3VgZLo_040.png,True
images/wET1hO-eBQw_007.png,2160,3840,real,REAL_Edge_Cases,,UNKW,25,12,rain,,,,,,,,,,,,1694,986,1706,986,1799,1123,1618,1131,wET1hO-eBQw_007.png,False
images/wET1hO-eBQw_008.png,2160,3840,real,REAL_Edge_Cases,,UNKW,25,10,rain,,,,,,,,,,,,1764,956,1777,956,1917,1111,1665,1131,wET1hO-eBQw_008.png,True
images/wET1hO-eBQw_009.png,2160,3840,real,REAL_Edge_Cases,,UNKW,25,8,rain,,,,,,,,,,,,1677,958,1697,958,1895,1169,1500,1176,wET1hO-eBQw_009.png,True
images/wET1hO-eBQw_010.png,2160,3840,real,REAL_Edge_Cases,,UNKW,25,6,rain,,,,,,,,,,,,1796,975,1768,976,2292,1386,1267,1401,wET1hO-eBQw_010.png,True
images/WpBxZxIi6tU_043.png,2160,3840,real,REAL_Edge_Cases,,LFSB,15,162,,,,,,,,,,,,,1523,932,1531,932,1523,962,1532,962,WpBxZxIi6tU_043.png,False
images/WpBxZxIi6tU_066.png,2160,3840,real,REAL_Edge_Cases,,LFSB,15,116,,,,,,,,,,,,,2329,1043,2339,1043,2325,1083,2341,1083,WpBxZxIi6tU_066.png,False
images/WpBxZxIi6tU_084.png,2160,3840,real,REAL_Edge_Cases,,LFSB,15,80,,,,,,,,,,,,,1424,1107,1439,1107,1452,1161,1426,1162,WpBxZxIi6tU_084.png,False
images/WpBxZxIi6tU_093.png,2160,3840,real,REAL_Edge_Cases,,LFSB,15,62,,,,,,,,,,,,,1412,1102,1428,1102,1409,1166,1444,1166,WpBxZxIi6tU_093.png,False
images/WpBxZxIi6tU_099.png,2160,3840,real,REAL_Edge_Cases,,LFSB,15,50,,,,,,,,,,,,,1430,1047,1448,1047,1421,1121,1467,1122,WpBxZxIi6tU_099.png,False
images/WpBxZxIi6tU_104.png,2160,3840,real,REAL_Edge_Cases,,LFSB,15,40,,,,,,,,,,,,,2351,1067,2371,1067,2382,1149,2323,1150,WpBxZxIi6tU_104.png,False
images/WpBxZxIi6tU_108.png,2160,3840,real,REAL_Edge_Cases,,LFSB,15,32,,,,,,,,,,,,,2297,1105,2319,1105,2257,1200,2333,1200,WpBxZxIi6tU_108.png,False
images/WpBxZxIi6tU_111.png,2160,3840,real,REAL_Edge_Cases,,LFSB,15,26,,,,,,,,,,,,,2333,1076,2309,1077,2360,1180,2262,1183,WpBxZxIi6tU_111.png,False
images/WpBxZxIi6tU_114.png,2160,3840,real,REAL_Edge_Cases,,LFSB,15,20,,,,,,,,,,,,,2277,1045,2252,1046,2316,1166,2179,1170,WpBxZxIi6tU_114.png,False
images/WpBxZxIi6tU_116.png,2160,3840,real,REAL_Edge_Cases,,LFSB,15,16,,,,,,,,,,,,,1530,1060,1559,1060,1670,1197,1481,1199,WpBxZxIi6tU_116.png,False
images/WpBxZxIi6tU_118.png,2160,3840,real,REAL_Edge_Cases,,LFSB,15,12,,,,,,,,,,,,,1470,1046,1500,1047,1372,1216,1677,1218,WpBxZxIi6tU_118.png,True
images/WpBxZxIi6tU_119.png,2160,3840,real,REAL_Edge_Cases,,LFSB,15,10,,,,,,,,,,,,,2353,1041,2321,1042,2513,1238,2085,1250,WpBxZxIi6tU_119.png,True
images/WpBxZxIi6tU_120.png,2160,3840,real,REAL_Edge_Cases,,LFSB,15,8,,,,,,,,,,,,,2338,1060,2304,1061,1902,1332,2626,1344,WpBxZxIi6tU_120.png,True
images/Xt07KWm7FcU_011.png,1080,1920,real,REAL_Edge_Cases,,LSZH,14,10,,,,,,,,,,,,,1017,451,1037,451,1165,603,886,607,Xt07KWm7FcU_011.png,False
images/Xt07KWm7FcU_012.png,1080,1920,real,REAL_Edge_Cases,,LSZH,14,8,,,,,,,,,,,,,1008,447,1029,447,755,681,1264,704,Xt07KWm7FcU_012.png,True
images/yUp4X6Btj-4_049.png,1080,1920,real,REAL_Edge_Cases,,LSZH,14,10,,,,,,,,,,,,,1220,337,1237,337,1122,464,1336,465,yUp4X6Btj-4_049.png,False
images/yUp4X6Btj-4_050.png,1080,1920,real,REAL_Edge_Cases,,LSZH,14,8,,,,,,,,,,,,,1252,347,1233,348,1442,539,1043,540,yUp4X6Btj-4_050.png,True
images/zrbD-pFE0dw_051.png,2160,3840,real,REAL_Edge_Cases,,LIMF,36,26,,,,,,,,,,,,,2010,1098,2043,1098,1973,1193,2075,1194,zrbD-pFE0dw_051.png,False
images/zrbD-pFE0dw_054.png,2160,3840,real,REAL_Edge_Cases,,LIMF,36,20,,,,,,,,,,,,,1803,1094,1842,1095,1898,1210,1752,1211,zrbD-pFE0dw_054.png,False
images/zrbD-pFE0dw_056.png,2160,3840,real,REAL_Edge_Cases,,LIMF,36,16,,,,,,,,,,,,,2025,1097,1988,1098,2107,1238,1906,1241,zrbD-pFE0dw_056.png,True
images/zrbD-pFE0dw_058.png,2160,3840,real,REAL_Edge_Cases,,LIMF,36,12,,,,,,,,,,,,,1965,1100,2008,1100,2157,1290,1805,1291,zrbD-pFE0dw_058.png,True
images/zrbD-pFE0dw_059.png,2160,3840,real,REAL_Edge_Cases,,LIMF,36,10,,,,,,,,,,,,,1841,1107,1885,1108,1605,1357,2154,1361,zrbD-pFE0dw_059.png,True
images/zrbD-pFE0dw_060.png,2160,3840,real,REAL_Edge_Cases,,LIMF,36,8,,,,,,,,,,,,,1839,1108,1886,1108,1257,1578,2494,1583,zrbD-pFE0dw_060.png,True
images/zRTsLTvxMLw_058.png,1080,1920,real,REAL_Edge_Cases,,EHAM,6,26,rain,,,,,,,,,,,,1265,616,1273,618,1243,642,1266,649,zRTsLTvxMLw_058.png,False
images/zRTsLTvxMLw_062.png,1080,1920,real,REAL_Edge_Cases,,EHAM,6,18,rain,,,,,,,,,,,,1262,595,1270,597,1231,626,1268,637,zRTsLTvxMLw_062.png,False
images/zRTsLTvxMLw_064.png,1080,1920,real,REAL_Edge_Cases,,EHAM,6,14,rain,,,,,,,,,,,,1267,589,1276,592,1225,626,1276,642,zRTsLTvxMLw_064.png,False
images/zRTsLTvxMLw_066.png,1080,1920,real,REAL_Edge_Cases,,EHAM,6,10,rain,,,,,,,,,,,,1269,587,1280,590,1210,633,1296,658,zRTsLTvxMLw_066.png,False
images/zRTsLTvxMLw_067.png,1080,1920,real,REAL_Edge_Cases,,EHAM,6,8,rain,,,,,,,,,,,,1266,575,1276,577,1186,631,1314,671,zRTsLTvxMLw_067.png,False
images/_Xjo8aUSNuI_011.png,1080,1920,real,REAL_Edge_Cases,,LSGG,23,70,,,,,,,,,,,,,1386,377,1395,377,1382,424,1400,424,_Xjo8aUSNuI_011.png,False
images/_Xjo8aUSNuI_025.png,1080,1920,real,REAL_Edge_Cases,,LSGG,23,42,,,,,,,,,,,,,494,400,506,401,484,468,515,468,_Xjo8aUSNuI_025.png,True
images/_Xjo8aUSNuI_030.png,1080,1920,real,REAL_Edge_Cases,,LSGG,23,32,,,,,,,,,,,,,544,391,561,391,527,473,572,473,_Xjo8aUSNuI_030.png,True
images/_Xjo8aUSNuI_033.png,1080,1920,real,REAL_Edge_Cases,,LSGG,23,26,,,,,,,,,,,,,1372,365,1355,366,1337,460,1395,460,_Xjo8aUSNuI_033.png,True
images/_Xjo8aUSNuI_036.png,1080,1920,real,REAL_Edge_Cases,,LSGG,23,20,,,,,,,,,,,,,1366,368,1383,368,1331,475,1415,476,_Xjo8aUSNuI_036.png,True
images/_Xjo8aUSNuI_038.png,1080,1920,real,REAL_Edge_Cases,,LSGG,23,16,,,,,,,,,,,,,547,371,567,371,619,493,501,495,_Xjo8aUSNuI_038.png,True
images/_Xjo8aUSNuI_039.png,1080,1920,real,REAL_Edge_Cases,,LSGG,23,14,,,,,,,,,,,,,1380,395,1400,395,1315,532,1456,536,_Xjo8aUSNuI_039.png,True
images/_Xjo8aUSNuI_040.png,1080,1920,real,REAL_Edge_Cases,,LSGG,23,12,,,,,,,,,,,,,1380,349,1401,349,1483,510,1296,511,_Xjo8aUSNuI_040.png,True
images/_Xjo8aUSNuI_041.png,1080,1920,real,REAL_Edge_Cases,,LSGG,23,10,,,,,,,,,,,,,1349,388,1368,388,1493,586,1234,587,_Xjo8aUSNuI_041.png,True
images/_Xjo8aUSNuI_042.png,1080,1920,real,REAL_Edge_Cases,,LSGG,23,8,,,,,,,,,,,,,560,398,585,398,790,680,344,687,_Xjo8aUSNuI_042.png,True
