image,height,width,type,original_dataset,scenario,airport,runway,time_to_landing,weather,night,time,slant_distance,along_track_distance,height_above_runway,lateral_path_angle,vertical_path_angle,yaw,pitch,roll,x_A,y_A,x_B,y_B,x_C,y_C,x_D,y_D,watermark_height,image_name,detected
images/CYUL_06L_35_09.jpeg,2048,2448,earth_studio,LARD_test_synth,CYUL_06L_35,CYUL,06L,,,,2020-04-01 18:01:01,1.93,1.92,550.72,-0.28,2.49,42.791840936271214,84.8589889064664,3.4871304952424813,1113,1348,1142,1349,1111,1426,1169,1428,300.0,CYUL_06L_35_09.jpeg,True
images/CYUL_06L_35_10.jpeg,2048,2448,earth_studio,LARD_test_synth,CYUL_06L_35,CYUL,06L,,,,2020-04-01 17:01:01,1.77,1.76,595.16,0.33,2.91,34.312226377301506,87.24603069292709,2.458953458562585,1465,1323,1495,1330,1408,1408,1470,1423,300.0,CYUL_06L_35_10.jpeg,True
images/CYUL_06L_35_11.jpeg,2048,2448,earth_studio,LARD_test_synth,CYUL_06L_35,CYUL,06L,,,,2020-05-01 20:00:01,1.56,1.56,492.01,0.15,2.69,40.633064111643854,86.08464913430332,-3.2246184643457463,680,1476,647,1481,703,1570,630,1581,300.0,CYUL_06L_35_11.jpeg,True
images/CYUL_06L_35_12.jpeg,2048,2448,earth_studio,LARD_test_synth,CYUL_06L_35,CYUL,06L,,,,2020-05-01 19:01:01,1.26,1.25,426.98,0.34,2.84,41.113451318466616,87.40224247787008,5.962504379898668,964,1250,1000,1253,902,1360,992,1365,300.0,CYUL_06L_35_12.jpeg,True
images/CYUL_06L_35_13.jpeg,2048,2448,earth_studio,LARD_test_synth,CYUL_06L_35,CYUL,06L,,,,2020-07-01 17:00:01,1.22,1.22,465.05,0.25,3.16,46.62143841831947,87.51039303483634,2.846029277133793,1604,1083,1640,1086,1542,1205,1634,1215,300.0,CYUL_06L_35_13.jpeg,True
images/CYUL_06L_35_14.jpeg,2048,2448,earth_studio,LARD_test_synth,CYUL_06L_35,CYUL,06L,,,,2020-07-01 19:00:01,1.0,1.0,373.7,-0.6,3.03,42.13794914385881,86.5084251224656,-1.5106142626043648,1250,1032,1211,1038,1369,1150,1257,1168,300.0,CYUL_06L_35_14.jpeg,True
images/CYUL_06L_35_15.jpeg,2048,2448,earth_studio,LARD_test_synth,CYUL_06L_35,CYUL,06L,,,,2020-06-01 19:00:01,0.81,0.81,310.83,1.15,3.0,39.17023631727707,87.27801987201816,7.92974431741742,1098,1183,1056,1184,1007,1333,868,1336,300.0,CYUL_06L_35_15.jpeg,True
images/CYUL_06L_35_16.jpeg,2048,2448,earth_studio,LARD_test_synth,CYUL_06L_35,CYUL,06L,,,,2020-06-01 17:01:01,0.81,0.81,335.14,-0.38,3.25,37.998514294505256,84.15400904869631,0.6522016512588076,1307,1261,1266,1263,1412,1417,1273,1424,300.0,CYUL_06L_35_16.jpeg,True
images/CYUL_06L_35_17.jpeg,2048,2448,earth_studio,LARD_test_synth,CYUL_06L_35,CYUL,06L,,,,2020-08-01 18:00:01,0.76,0.76,243.59,1.23,2.49,42.0629508706858,91.4588381096593,1.5882808729823266,1375,1135,1418,1136,1156,1256,1304,1260,300.0,CYUL_06L_35_17.jpeg,True
images/CYUL_06L_35_18.jpeg,2048,2448,earth_studio,LARD_test_synth,CYUL_06L_35,CYUL,06L,,,,2020-06-01 18:01:01,0.68,0.68,277.86,-0.21,3.09,44.41799815735154,89.08806137900947,-1.872568674160975,1024,1069,1068,1075,976,1231,1140,1250,300.0,CYUL_06L_35_18.jpeg,True
images/CYUL_06L_35_19.jpeg,2048,2448,earth_studio,LARD_test_synth,CYUL_06L_35,CYUL,06L,,,,2020-04-01 20:00:01,0.57,0.57,249.07,0.02,3.2,38.02729473767278,87.48562879431972,-13.342297290640625,1330,1282,1284,1284,1411,1466,1213,1474,300.0,CYUL_06L_35_19.jpeg,True
images/CYUL_06L_35_20.jpeg,2048,2448,earth_studio,LARD_test_synth,CYUL_06L_35,CYUL,06L,,,,2020-04-01 18:01:01,0.53,0.53,216.14,-0.75,2.92,52.02238808671928,89.91435388394348,7.840587829551345,1227,978,1273,983,1265,1160,1475,1184,300.0,CYUL_06L_35_20.jpeg,True
images/CYUL_06L_35_21.jpeg,2048,2448,earth_studio,LARD_test_synth,CYUL_06L_35,CYUL,06L,,,,2020-06-01 17:00:01,0.53,0.53,194.13,-0.09,2.64,46.37262043244717,87.75528766317586,-3.749717951187338,1700,867,1653,874,1823,1013,1607,1043,300.0,CYUL_06L_35_21.jpeg,True
images/CYUL_06L_35_22.jpeg,2048,2448,earth_studio,LARD_test_synth,CYUL_06L_35,CYUL,06L,,,,2020-04-01 18:00:01,0.39,0.39,189.89,-0.0,3.25,36.05876966842021,83.93828324168156,-5.348652333275192,689,1169,740,1177,535,1381,831,1419,300.0,CYUL_06L_35_22.jpeg,True
images/CYUL_06L_35_23.jpeg,2048,2448,earth_studio,LARD_test_synth,CYUL_06L_35,CYUL,06L,,,,2020-06-01 20:01:01,0.3,0.3,152.15,0.29,3.06,42.23371654303484,83.99588843491352,9.272798046476003,1341,1115,1393,1120,1066,1330,1434,1365,300.0,CYUL_06L_35_23.jpeg,True
images/CYUL_06L_35_24.jpeg,2048,2448,earth_studio,LARD_test_synth,CYUL_06L_35,CYUL,06L,,,,2020-06-01 19:01:01,0.28,0.27,154.26,0.57,3.31,43.91126176480286,86.50712934575674,0.9967563965635672,1231,1113,1179,1116,1218,1387,810,1406,300.0,CYUL_06L_35_24.jpeg,True
images/CYUL_06L_35_25.jpeg,2048,2448,earth_studio,LARD_test_synth,CYUL_06L_35,CYUL,06L,,,,2020-04-01 17:00:01,0.25,0.24,154.99,0.31,3.57,41.81226555351016,87.83458562862953,2.99899842407808,1333,1206,1386,1215,960,1461,1412,1535,300.0,CYUL_06L_35_25.jpeg,True
images/CYUL_06L_35_26.jpeg,2048,2448,earth_studio,LARD_test_synth,CYUL_06L_35,CYUL,06L,,,,2020-04-01 20:00:01,0.24,0.24,124.35,-0.08,2.91,38.6040661700829,85.8878368455784,-1.6314627458344189,962,985,1016,990,764,1230,1238,1268,300.0,CYUL_06L_35_26.jpeg,True
images/CYUL_24R_35_08.jpeg,2048,2448,earth_studio,LARD_test_synth,CYUL_24R_35,CYUL,24R,,,,2020-06-01 20:01:01,2.1,2.1,621.73,0.69,2.59,-133.34238853520253,86.38615092195036,1.7818879324684789,1657,1109,1687,1110,1608,1184,1661,1186,300.0,CYUL_24R_35_08.jpeg,True
images/CYUL_24R_35_09.jpeg,2048,2448,earth_studio,LARD_test_synth,CYUL_24R_35,CYUL,24R,,,,2020-05-01 20:00:01,1.91,1.9,561.26,-2.2,2.56,-133.98851860391844,87.1202539236366,-5.9745320744858965,1045,976,1076,977,1149,1059,1206,1061,300.0,CYUL_24R_35_09.jpeg,True
images/CYUL_24R_35_10.jpeg,2048,2448,earth_studio,LARD_test_synth,CYUL_24R_35,CYUL,24R,,,,2020-08-01 17:01:01,1.82,1.82,575.49,1.23,2.74,-139.91044788811087,85.94676860112666,4.294748221641372,1029,1132,1060,1134,939,1214,999,1218,300.0,CYUL_24R_35_10.jpeg,True
images/CYUL_24R_35_11.jpeg,2048,2448,earth_studio,LARD_test_synth,CYUL_24R_35,CYUL,24R,,,,2020-04-01 19:00:01,1.79,1.78,440.01,-0.35,2.13,-137.21326319196567,86.39025568391976,-2.127671927624541,1059,1137,1090,1137,1064,1207,1125,1207,300.0,CYUL_24R_35_11.jpeg,True
images/CYUL_24R_35_12.jpeg,2048,2448,earth_studio,LARD_test_synth,CYUL_24R_35,CYUL,24R,,,,2020-04-01 19:01:01,1.71,1.71,527.16,0.72,2.65,-144.22183787950408,83.17420627322286,-0.8197941231268684,1580,1124,1547,1128,1561,1216,1497,1222,300.0,CYUL_24R_35_12.jpeg,True
images/CYUL_24R_35_13.jpeg,2048,2448,earth_studio,LARD_test_synth,CYUL_24R_35,CYUL,24R,,,,2020-04-01 18:00:01,1.61,1.6,631.24,0.46,3.36,-138.71296556608152,81.9974183541895,2.717572927223572,1514,1132,1481,1135,1515,1249,1448,1257,300.0,CYUL_24R_35_13.jpeg,True
images/CYUL_24R_35_14.jpeg,2048,2448,earth_studio,LARD_test_synth,CYUL_24R_35,CYUL,24R,,,,2020-06-01 20:01:01,1.59,1.59,509.3,0.35,2.74,-137.1405458920938,85.67573255843942,2.877141095356761,1410,1200,1443,1204,1359,1291,1427,1298,300.0,CYUL_24R_35_14.jpeg,True
images/CYUL_24R_35_15.jpeg,2048,2448,earth_studio,LARD_test_synth,CYUL_24R_35,CYUL,24R,,,,2020-08-01 19:01:01,1.28,1.28,489.34,0.33,3.19,-134.50449222458803,87.39417527440384,5.208134862642972,1365,1071,1328,1073,1368,1197,1283,1200,300.0,CYUL_24R_35_15.jpeg,True
images/CYUL_24R_35_16.jpeg,2048,2448,earth_studio,LARD_test_synth,CYUL_24R_35,CYUL,24R,,,,2020-08-01 20:01:01,1.25,1.25,423.07,-1.34,2.83,-145.42473727171878,84.54017117575758,-1.844258001205317,1290,1166,1327,1169,1366,1284,1453,1290,300.0,CYUL_24R_35_16.jpeg,True
images/CYUL_24R_35_17.jpeg,2048,2448,earth_studio,LARD_test_synth,CYUL_24R_35,CYUL,24R,,,,2020-04-01 18:01:01,1.22,1.21,454.71,-2.13,3.11,-132.38341685754554,82.72470582137105,-1.6431494456385685,1185,1086,1223,1087,1334,1216,1423,1219,300.0,CYUL_24R_35_17.jpeg,True
images/CYUL_24R_35_18.jpeg,2048,2448,earth_studio,LARD_test_synth,CYUL_24R_35,CYUL,24R,,,,2020-04-01 19:00:01,1.18,1.18,371.94,1.64,2.61,-135.32099209069307,85.42321807007356,-4.166520437607197,969,1150,1006,1155,787,1236,880,1247,300.0,CYUL_24R_35_18.jpeg,True
images/CYUL_24R_35_19.jpeg,2048,2448,earth_studio,LARD_test_synth,CYUL_24R_35,CYUL,24R,,,,2020-06-01 17:00:01,1.1,1.1,431.44,-0.41,3.22,-134.51528125122115,85.6391866485885,-0.5389637607232307,1325,1307,1364,1310,1323,1444,1422,1451,300.0,CYUL_24R_35_19.jpeg,True
images/CYUL_24R_35_20.jpeg,2048,2448,earth_studio,LARD_test_synth,CYUL_24R_35,CYUL,24R,,,,2020-07-01 20:01:01,1.05,1.05,370.47,1.54,2.88,-144.09445398472243,85.78882632423891,6.093175429021079,988,940,1028,942,801,1059,906,1064,300.0,CYUL_24R_35_20.jpeg,True
images/CYUL_24R_35_21.jpeg,2048,2448,earth_studio,LARD_test_synth,CYUL_24R_35,CYUL,24R,,,,2020-08-01 18:01:01,1.0,1.0,354.33,0.35,2.86,-142.77016784445885,85.53291961528313,6.862312784868164,1803,1219,1844,1223,1719,1341,1830,1352,300.0,CYUL_24R_35_21.jpeg,True
images/CYUL_24R_35_22.jpeg,2048,2448,earth_studio,LARD_test_synth,CYUL_24R_35,CYUL,24R,,,,2020-04-01 19:01:01,0.87,0.86,343.02,0.37,3.14,-140.90087492997864,86.09809251850355,-5.974838726242073,1590,1131,1633,1133,1496,1277,1622,1284,300.0,CYUL_24R_35_22.jpeg,True
images/CYUL_24R_35_23.jpeg,2048,2448,earth_studio,LARD_test_synth,CYUL_24R_35,CYUL,24R,,,,2020-04-01 19:01:01,0.82,0.82,244.29,0.42,2.34,-139.93487792204402,84.27885887099951,2.389009612893595,1331,1145,1373,1150,1222,1248,1354,1264,300.0,CYUL_24R_35_23.jpeg,True
images/CYUL_24R_35_24.jpeg,2048,2448,earth_studio,LARD_test_synth,CYUL_24R_35,CYUL,24R,,,,2020-06-01 18:00:01,0.71,0.71,213.19,0.04,2.3,-137.36380640024692,85.89074348988521,-3.9099064040983,962,1202,1007,1204,894,1320,1049,1328,300.0,CYUL_24R_35_24.jpeg,True
images/CYUL_24R_35_25.jpeg,2048,2448,earth_studio,LARD_test_synth,CYUL_24R_35,CYUL,24R,,,,2020-08-01 18:01:01,0.69,0.69,246.28,0.24,2.71,-134.91437644499032,84.52006064900542,-1.820973582486068,802,966,848,970,698,1103,857,1117,300.0,CYUL_24R_35_25.jpeg,True
images/CYUL_24R_35_26.jpeg,2048,2448,earth_studio,LARD_test_synth,CYUL_24R_35,CYUL,24R,,,,2020-04-01 20:00:01,0.67,0.67,234.21,0.33,2.65,-134.65139680234108,86.3680177894816,-7.105928583554717,1183,959,1137,961,1197,1103,1034,1109,300.0,CYUL_24R_35_26.jpeg,True
images/CYUL_24R_35_27.jpeg,2048,2448,earth_studio,LARD_test_synth,CYUL_24R_35,CYUL,24R,,,,2020-06-01 18:00:01,0.62,0.62,237.63,0.3,2.85,-139.02435378745824,88.11413604385852,-4.108210225087103,1168,988,1214,994,1039,1134,1213,1155,300.0,CYUL_24R_35_27.jpeg,True
images/CYUL_24R_35_28.jpeg,2048,2448,earth_studio,LARD_test_synth,CYUL_24R_35,CYUL,24R,,,,2020-05-01 19:00:01,0.5,0.5,212.76,-0.59,3.03,-134.9590415731408,82.43797802701212,-2.5037320504828173,1224,979,1175,984,1447,1143,1230,1168,300.0,CYUL_24R_35_28.jpeg,True
images/CYUL_24R_35_29.jpeg,2048,2448,earth_studio,LARD_test_synth,CYUL_24R_35,CYUL,24R,,,,2020-07-01 17:00:01,0.48,0.48,163.88,0.61,2.41,-147.53729907907325,86.13329271016423,-4.888128057412434,1667,1273,1617,1274,1632,1427,1403,1430,300.0,CYUL_24R_35_29.jpeg,True
images/CYUL_24R_35_30.jpeg,2048,2448,earth_studio,LARD_test_synth,CYUL_24R_35,CYUL,24R,,,,2020-06-01 19:00:01,0.43,0.43,177.87,0.3,2.8,-144.07932203469514,85.16028482724603,-2.845322560248025,869,1088,920,1088,696,1272,950,1275,300.0,CYUL_24R_35_30.jpeg,True
images/CYUL_24R_35_31.jpeg,2048,2448,earth_studio,LARD_test_synth,CYUL_24R_35,CYUL,24R,,,,2020-06-01 18:01:01,0.41,0.41,209.52,0.18,3.44,-139.59271985038288,85.85498703702733,-6.571755206749582,1537,965,1587,974,1345,1169,1607,1217,300.0,CYUL_24R_35_31.jpeg,True
images/CYUL_24R_35_32.jpeg,2048,2448,earth_studio,LARD_test_synth,CYUL_24R_35,CYUL,24R,,,,2020-08-01 18:01:01,0.08,0.08,69.79,0.1,2.7,-133.30237378003412,87.33100381286106,-3.308585092036183,1142,1011,1202,1015,342,1437,1703,1513,300.0,CYUL_24R_35_32.jpeg,True
images/CYVR_08L_35_02.jpeg,2048,2448,earth_studio,LARD_test_synth,CYVR_08L_35,CYVR,08L,,,,2020-04-01 20:00:01,2.72,2.71,777.78,0.4,2.55,102.97667219204484,82.50716687703714,2.569933251731355,1556,1353,1582,1357,1528,1408,1568,1413,300.0,CYVR_08L_35_02.jpeg,True
images/CYVR_08L_35_03.jpeg,2048,2448,earth_studio,LARD_test_synth,CYVR_08L_35,CYVR,08L,,,,2020-04-01 20:01:01,2.6,2.59,779.51,-0.08,2.66,106.00208246860709,84.72796130980747,2.8396093406778684,1194,1116,1221,1117,1187,1178,1229,1180,300.0,CYVR_08L_35_03.jpeg,True
images/CYVR_08L_35_04.jpeg,2048,2448,earth_studio,LARD_test_synth,CYVR_08L_35,CYVR,08L,,,,2020-08-01 20:01:01,2.52,2.52,735.41,-0.83,2.58,93.5912713275123,87.9662011468472,-7.264805453964408,1009,1078,982,1079,1051,1137,1007,1140,300.0,CYVR_08L_35_04.jpeg,True
images/CYVR_08L_35_05.jpeg,2048,2448,earth_studio,LARD_test_synth,CYVR_08L_35,CYVR,08L,,,,2020-08-01 23:01:01,2.49,2.48,924.53,0.5,3.29,100.31896704145096,84.66630192112599,-2.2738370956552347,1214,1291,1187,1296,1218,1370,1175,1378,300.0,CYVR_08L_35_05.jpeg,True
images/CYVR_08L_35_06.jpeg,2048,2448,earth_studio,LARD_test_synth,CYVR_08L_35,CYVR,08L,,,,2020-06-01 20:00:01,2.42,2.41,909.4,1.07,3.33,104.31168885735288,83.90286441662239,2.776417679252668,1246,1165,1273,1166,1192,1244,1238,1246,300.0,CYVR_08L_35_06.jpeg,True
images/CYVR_08L_35_07.jpeg,2048,2448,earth_studio,LARD_test_synth,CYVR_08L_35,CYVR,08L,,,,2020-06-01 23:00:01,2.35,2.35,798.63,0.85,2.99,99.61284765290829,87.17358534569226,10.2980973367577,1234,1127,1206,1128,1212,1202,1166,1204,300.0,CYVR_08L_35_07.jpeg,True
images/CYVR_08L_35_08.jpeg,2048,2448,earth_studio,LARD_test_synth,CYVR_08L_35,CYVR,08L,,,,2020-05-01 21:00:01,2.09,2.08,788.22,-0.13,3.3,98.22098067584832,85.05339037150164,-2.238694623749554,1173,1190,1143,1192,1194,1279,1142,1281,300.0,CYVR_08L_35_08.jpeg,True
images/CYVR_08L_35_09.jpeg,2048,2448,earth_studio,LARD_test_synth,CYVR_08L_35,CYVR,08L,,,,2020-07-01 21:01:01,1.88,1.88,602.65,1.21,2.78,98.90022279080654,84.67467953252083,1.9910101141220864,919,1193,951,1196,840,1268,899,1272,300.0,CYVR_08L_35_09.jpeg,True
images/CYVR_08L_35_10.jpeg,2048,2448,earth_studio,LARD_test_synth,CYVR_08L_35,CYVR,08L,,,,2020-04-01 21:00:01,1.85,1.84,627.28,1.82,2.94,100.96577376241063,85.58953926160211,2.603184157828456,710,1102,743,1103,600,1186,661,1188,300.0,CYVR_08L_35_10.jpeg,True
images/CYVR_08L_35_11.jpeg,2048,2448,earth_studio,LARD_test_synth,CYVR_08L_35,CYVR,08L,,,,2020-05-01 20:00:01,1.62,1.61,671.99,-1.81,3.57,103.57188181586544,86.45206103951068,-4.312369836071225,1741,1126,1776,1127,1830,1242,1900,1242,300.0,CYVR_08L_35_11.jpeg,True
images/CYVR_08L_35_12.jpeg,2048,2448,earth_studio,LARD_test_synth,CYVR_08L_35,CYVR,08L,,,,2020-05-01 23:00:01,1.23,1.22,369.08,1.16,2.51,106.37919565057786,84.74044701110262,-2.014935326643366,1841,1191,1800,1192,1776,1287,1684,1288,300.0,CYVR_08L_35_12.jpeg,True
images/CYVR_08L_35_13.jpeg,2048,2448,earth_studio,LARD_test_synth,CYVR_08L_35,CYVR,08L,,,,2020-07-01 23:01:01,1.18,1.17,447.53,0.39,3.15,92.8065794713505,84.5621490514284,-0.0580025278866408,1047,1164,1087,1170,973,1274,1065,1288,300.0,CYVR_08L_35_13.jpeg,True
images/CYVR_08L_35_14.jpeg,2048,2448,earth_studio,LARD_test_synth,CYVR_08L_35,CYVR,08L,,,,2020-06-01 22:01:01,1.13,1.13,360.94,-0.88,2.63,88.63808967311223,86.66676612831667,1.3697742527721457,1256,1120,1297,1121,1299,1224,1396,1226,300.0,CYVR_08L_35_14.jpeg,True
images/CYVR_08L_35_15.jpeg,2048,2448,earth_studio,LARD_test_synth,CYVR_08L_35,CYVR,08L,,,,2020-07-01 22:01:01,0.94,0.94,392.46,-0.59,3.35,102.44018205002568,86.14703003696481,-8.370509104429345,1241,1186,1285,1190,1250,1332,1367,1343,300.0,CYVR_08L_35_15.jpeg,True
images/CYVR_08L_35_16.jpeg,2048,2448,earth_studio,LARD_test_synth,CYVR_08L_35,CYVR,08L,,,,2020-06-01 22:00:01,0.86,0.86,338.66,0.32,3.13,99.9679344083085,85.23377952300072,-1.2751252639088164,1362,1202,1408,1202,1283,1341,1411,1344,300.0,CYVR_08L_35_16.jpeg,True
images/CYVR_08L_35_17.jpeg,2048,2448,earth_studio,LARD_test_synth,CYVR_08L_35,CYVR,08L,,,,2020-05-01 20:01:01,0.82,0.82,293.78,0.99,2.81,100.03762705841896,86.10139982417334,-5.4654435890869335,1217,1188,1171,1198,1175,1330,1045,1358,300.0,CYVR_08L_35_17.jpeg,True
images/CYVR_08L_35_18.jpeg,2048,2448,earth_studio,LARD_test_synth,CYVR_08L_35,CYVR,08L,,,,2020-08-01 20:00:01,0.77,0.77,312.33,1.28,3.15,96.8502814332914,86.51205175557763,-0.9477682072455916,717,960,766,960,509,1113,656,1113,300.0,CYVR_08L_35_18.jpeg,True
images/CYVR_08L_35_19.jpeg,2048,2448,earth_studio,LARD_test_synth,CYVR_08L_35,CYVR,08L,,,,2020-08-01 23:01:01,0.73,0.72,243.93,1.55,2.6,98.82356687322842,86.50821354067682,12.455674648512282,1269,995,1220,997,1121,1130,970,1137,300.0,CYVR_08L_35_19.jpeg,True
images/CYVR_08L_35_20.jpeg,2048,2448,earth_studio,LARD_test_synth,CYVR_08L_35,CYVR,08L,,,,2020-07-01 23:01:01,0.63,0.63,235.81,0.14,2.8,106.56775084775872,82.59531811553691,-0.3304255435281168,1137,1223,1187,1227,1043,1366,1217,1378,300.0,CYVR_08L_35_20.jpeg,True
images/CYVR_08L_35_21.jpeg,2048,2448,earth_studio,LARD_test_synth,CYVR_08L_35,CYVR,08L,,,,2020-07-01 23:01:01,0.59,0.58,242.21,-0.41,3.05,97.6226537135208,83.44690806167918,2.5570792731048915,861,1408,913,1408,1051,1573,862,1577,300.0,CYVR_08L_35_21.jpeg,True
images/CYVR_08L_35_22.jpeg,2048,2448,earth_studio,LARD_test_synth,CYVR_08L_35,CYVR,08L,,,,2020-04-01 23:01:01,0.52,0.51,269.37,0.71,3.73,100.8707601654894,87.33891338559295,-4.059701674496944,1396,1117,1342,1122,1360,1339,1149,1355,300.0,CYVR_08L_35_22.jpeg,True
images/CYVR_08L_35_23.jpeg,2048,2448,earth_studio,LARD_test_synth,CYVR_08L_35,CYVR,08L,,,,2020-06-01 21:01:01,0.51,0.51,205.88,-0.8,2.89,105.9654077102376,90.2234883183395,0.6131746061066573,810,1150,865,1152,878,1323,1094,1326,300.0,CYVR_08L_35_23.jpeg,True
images/CYVR_08L_35_24.jpeg,2048,2448,earth_studio,LARD_test_synth,CYVR_08L_35,CYVR,08L,,,,2020-06-01 21:00:01,0.5,0.5,226.48,-0.51,3.23,96.40403694699349,85.47446040275064,4.494288323024611,1427,1105,1373,1108,1622,1286,1400,1299,300.0,CYVR_08L_35_24.jpeg,True
images/CYVR_08L_35_25.jpeg,2048,2448,earth_studio,LARD_test_synth,CYVR_08L_35,CYVR,08L,,,,2020-06-01 20:00:01,0.48,0.48,229.24,-0.4,3.37,107.2683794396307,86.26083597538492,-1.5321958288796125,1410,1152,1356,1153,1583,1354,1352,1359,300.0,CYVR_08L_35_25.jpeg,True
images/CYVR_08L_35_26.jpeg,2048,2448,earth_studio,LARD_test_synth,CYVR_08L_35,CYVR,08L,,,,2020-08-01 21:01:01,0.46,0.46,193.48,-0.23,2.9,97.22224864960737,85.44162690337124,3.7028100961628247,1471,974,1416,982,1632,1135,1396,1165,300.0,CYVR_08L_35_26.jpeg,True
images/CYVR_08L_35_27.jpeg,2048,2448,earth_studio,LARD_test_synth,CYVR_08L_35,CYVR,08L,,,,2020-07-01 20:01:01,0.44,0.44,187.68,1.16,2.94,97.54954936655804,86.06127441003144,1.3101019655890824,914,1022,858,1025,768,1218,513,1233,300.0,CYVR_08L_35_27.jpeg,True
images/CYVR_08L_35_28.jpeg,2048,2448,earth_studio,LARD_test_synth,CYVR_08L_35,CYVR,08L,,,,2020-04-01 20:00:01,0.28,0.28,117.38,0.69,2.5,95.710210448704,83.76571104215722,7.533242260452511,883,1079,822,1086,833,1287,432,1332,300.0,CYVR_08L_35_28.jpeg,True
images/CYVR_08L_35_29.jpeg,2048,2448,earth_studio,LARD_test_synth,CYVR_08L_35,CYVR,08L,,,,2020-08-01 23:01:01,0.25,0.25,120.06,0.91,2.73,103.99244295175704,83.71457275763497,3.070101948116898,1413,1083,1352,1088,1271,1325,840,1360,300.0,CYVR_08L_35_29.jpeg,True
images/CYVR_08L_35_30.jpeg,2048,2448,earth_studio,LARD_test_synth,CYVR_08L_35,CYVR,08L,,,,2020-08-01 22:00:01,0.24,0.23,104.06,0.44,2.46,104.8875050296675,84.66812506073106,5.962856272764996,848,1128,785,1131,878,1343,401,1365,300.0,CYVR_08L_35_30.jpeg,True
images/CYVR_08L_35_31.jpeg,2048,2448,earth_studio,LARD_test_synth,CYVR_08L_35,CYVR,08L,,,,2020-07-01 22:01:01,0.22,0.22,109.72,-0.25,2.71,95.89036473027949,85.55763173002731,4.951034248214986,1006,950,1068,962,855,1175,1350,1265,300.0,CYVR_08L_35_31.jpeg,True
images/CYVR_08L_35_32.jpeg,2048,2448,earth_studio,LARD_test_synth,CYVR_08L_35,CYVR,08L,,,,2020-04-01 23:00:01,0.16,0.15,112.39,0.48,3.32,106.07244251795954,85.87320097422077,2.1764208990148823,1408,924,1343,926,1439,1295,735,1316,300.0,CYVR_08L_35_32.jpeg,True
images/CYVR_26R_35_01.jpeg,2048,2448,earth_studio,LARD_test_synth,CYVR_26R_35,CYVR,26R,,,,2020-07-01 21:01:01,2.75,2.74,929.39,1.73,3.01,-81.51326114121217,85.70116923050155,-1.627049843678112,830,1331,856,1331,765,1399,805,1399,300.0,CYVR_26R_35_01.jpeg,True
images/CYVR_26R_35_02.jpeg,2048,2448,earth_studio,LARD_test_synth,CYVR_26R_35,CYVR,26R,,,,2020-04-01 23:00:01,2.72,2.71,930.33,1.54,3.05,-75.43905072402953,87.97388480853098,0.3349460611042623,995,1125,969,1126,953,1196,913,1198,300.0,CYVR_26R_35_02.jpeg,True
images/CYVR_26R_35_03.jpeg,2048,2448,earth_studio,LARD_test_synth,CYVR_26R_35,CYVR,26R,,,,2020-07-01 21:00:01,2.61,2.6,782.78,1.31,2.67,-77.70820207027529,84.38824639146141,2.3948137541654533,588,1460,560,1461,550,1525,507,1527,300.0,CYVR_26R_35_03.jpeg,True
images/CYVR_26R_35_04.jpeg,2048,2448,earth_studio,LARD_test_synth,CYVR_26R_35,CYVR,26R,,,,2020-05-01 22:00:01,2.21,2.21,727.53,2.05,2.89,-70.50292045337928,89.95981404402688,2.5304065042891217,1439,1156,1468,1156,1343,1232,1392,1232,300.0,CYVR_26R_35_04.jpeg,True
images/CYVR_26R_35_05.jpeg,2048,2448,earth_studio,LARD_test_synth,CYVR_26R_35,CYVR,26R,,,,2020-04-01 22:01:01,2.05,2.04,679.81,0.16,2.9,-86.07640010688277,85.36018946569166,0.8102813378930656,991,1291,1022,1296,961,1366,1013,1374,300.0,CYVR_26R_35_05.jpeg,True
images/CYVR_26R_35_06.jpeg,2048,2448,earth_studio,LARD_test_synth,CYVR_26R_35,CYVR,26R,,,,2020-04-01 21:00:01,2.03,2.02,917.88,1.01,3.96,-76.53502231300239,88.23245494978582,-8.959764234480513,1042,1212,1011,1216,1022,1325,969,1332,300.0,CYVR_26R_35_06.jpeg,True
images/CYVR_26R_35_07.jpeg,2048,2448,earth_studio,LARD_test_synth,CYVR_26R_35,CYVR,26R,,,,2020-07-01 23:01:01,1.86,1.85,574.51,1.91,2.69,-78.06882409006039,85.2449437355219,7.838823108363937,1253,1299,1286,1301,1142,1373,1200,1375,300.0,CYVR_26R_35_07.jpeg,True
images/CYVR_26R_35_08.jpeg,2048,2448,earth_studio,LARD_test_synth,CYVR_26R_35,CYVR,26R,,,,2020-07-01 22:00:01,1.83,1.83,635.1,-0.13,3.0,-82.81016418749675,87.94294301141716,-2.06756293736198,1264,1214,1297,1215,1256,1302,1315,1303,300.0,CYVR_26R_35_08.jpeg,True
images/CYVR_26R_35_09.jpeg,2048,2448,earth_studio,LARD_test_synth,CYVR_26R_35,CYVR,26R,,,,2020-05-01 22:01:01,1.55,1.55,512.5,2.35,2.82,-80.84497938251594,86.33167774644265,-1.0999592767079014,257,1230,218,1235,136,1342,59,1352,300.0,CYVR_26R_35_09.jpeg,True
images/CYVR_26R_35_10.jpeg,2048,2448,earth_studio,LARD_test_synth,CYVR_26R_35,CYVR,26R,,,,2020-07-01 21:01:01,1.39,1.39,454.51,-0.0,2.75,-66.65797751617191,84.82118177783582,6.903733481117003,1055,1289,1091,1299,1010,1375,1085,1396,300.0,CYVR_26R_35_10.jpeg,True
images/CYVR_26R_35_11.jpeg,2048,2448,earth_studio,LARD_test_synth,CYVR_26R_35,CYVR,26R,,,,2020-05-01 20:01:01,1.23,1.22,518.9,-1.18,3.52,-77.49046875725072,88.69051628182758,-15.248810830891342,1528,979,1569,983,1583,1117,1672,1125,300.0,CYVR_26R_35_11.jpeg,True
images/CYVR_26R_35_12.jpeg,2048,2448,earth_studio,LARD_test_synth,CYVR_26R_35,CYVR,26R,,,,2020-04-01 22:00:01,1.22,1.22,369.86,-1.27,2.52,-83.74718157156532,82.00220594866659,-4.898075334180329,1181,1227,1222,1230,1248,1327,1336,1333,300.0,CYVR_26R_35_12.jpeg,True
images/CYVR_26R_35_13.jpeg,2048,2448,earth_studio,LARD_test_synth,CYVR_26R_35,CYVR,26R,,,,2020-06-01 22:00:01,1.21,1.21,438.0,-1.31,3.01,-78.24385600975384,87.15106502740035,-4.502189993876811,744,1109,785,1112,815,1228,905,1234,300.0,CYVR_26R_35_13.jpeg,True
images/CYVR_26R_35_14.jpeg,2048,2448,earth_studio,LARD_test_synth,CYVR_26R_35,CYVR,26R,,,,2020-06-01 22:00:01,1.13,1.13,400.64,-0.27,2.91,-70.7769494671708,85.46502871402932,-4.332246071504658,1056,1069,1015,1075,1123,1174,1028,1189,300.0,CYVR_26R_35_14.jpeg,True
images/CYVR_26R_35_15.jpeg,2048,2448,earth_studio,LARD_test_synth,CYVR_26R_35,CYVR,26R,,,,2020-08-01 21:00:01,1.07,1.06,458.5,-1.06,3.52,-77.28425956838879,83.91483244204387,8.47952280777453,686,1044,642,1048,827,1174,724,1185,300.0,CYVR_26R_35_15.jpeg,True
images/CYVR_26R_35_16.jpeg,2048,2448,earth_studio,LARD_test_synth,CYVR_26R_35,CYVR,26R,,,,2020-08-01 20:00:01,1.03,1.03,368.6,-0.33,2.91,-70.10194023446222,82.79521438277278,5.243423679556751,861,1334,817,1335,927,1451,821,1455,300.0,CYVR_26R_35_16.jpeg,True
images/CYVR_26R_35_17.jpeg,2048,2448,earth_studio,LARD_test_synth,CYVR_26R_35,CYVR,26R,,,,2020-07-01 21:00:01,0.92,0.92,340.41,0.99,2.97,-73.27124682299782,88.61933121572437,1.5466181979497515,709,1183,662,1185,647,1317,525,1322,300.0,CYVR_26R_35_17.jpeg,True
images/CYVR_26R_35_18.jpeg,2048,2448,earth_studio,LARD_test_synth,CYVR_26R_35,CYVR,26R,,,,2020-04-01 20:00:01,0.78,0.78,244.49,-0.09,2.45,-72.22813665576815,86.0036088299357,1.96283842130468,885,1182,933,1182,971,1298,830,1301,300.0,CYVR_26R_35_18.jpeg,True
images/CYVR_26R_35_19.jpeg,2048,2448,earth_studio,LARD_test_synth,CYVR_26R_35,CYVR,26R,,,,2020-05-01 20:01:01,0.74,0.74,288.37,-0.84,3.01,-74.93418819631736,86.51495366938505,0.9423706501341284,1295,1177,1344,1178,1351,1325,1498,1328,300.0,CYVR_26R_35_19.jpeg,True
images/CYVR_26R_35_20.jpeg,2048,2448,earth_studio,LARD_test_synth,CYVR_26R_35,CYVR,26R,,,,2020-07-01 21:01:01,0.73,0.73,312.13,-0.48,3.28,-80.75248088438316,86.29802170576207,-1.111159248317216,1678,1066,1728,1068,1680,1228,1831,1238,300.0,CYVR_26R_35_20.jpeg,True
images/CYVR_26R_35_21.jpeg,2048,2448,earth_studio,LARD_test_synth,CYVR_26R_35,CYVR,26R,,,,2020-04-01 22:00:01,0.62,0.62,230.21,-0.31,2.78,-87.34776870895364,83.94764010896135,-2.988746582800025,634,1231,581,1234,757,1373,577,1386,300.0,CYVR_26R_35_21.jpeg,True
images/CYVR_26R_35_22.jpeg,2048,2448,earth_studio,LARD_test_synth,CYVR_26R_35,CYVR,26R,,,,2020-05-01 22:00:01,0.56,0.56,272.62,-0.33,3.55,-69.60028728147401,86.7928797950559,3.52503006652496,909,1287,856,1295,1065,1464,873,1495,300.0,CYVR_26R_35_22.jpeg,True
images/CYVR_26R_35_23.jpeg,2048,2448,earth_studio,LARD_test_synth,CYVR_26R_35,CYVR,26R,,,,2020-08-01 21:01:01,0.26,0.25,133.33,-0.18,3.0,-74.15913223664187,87.3332341801157,8.785187094212745,1479,1338,1541,1346,1335,1572,1761,1631,300.0,CYVR_26R_35_23.jpeg,True
images/CYVR_26R_35_24.jpeg,2048,2448,earth_studio,LARD_test_synth,CYVR_26R_35,CYVR,26R,,,,2020-04-01 23:00:01,0.23,0.23,133.27,-0.56,3.18,-84.70508935536324,88.97142891463326,-7.463018338216911,1545,1378,1482,1382,2009,1641,1530,1663,300.0,CYVR_26R_35_24.jpeg,True
images/CYVR_26R_35_25.jpeg,2048,2448,earth_studio,LARD_test_synth,CYVR_26R_35,CYVR,26R,,,,2020-05-01 22:01:01,0.21,0.21,122.9,-0.14,3.1,-84.30131386516015,90.4798096102065,2.9075814441835486,1253,1127,1317,1129,1082,1410,1597,1425,300.0,CYVR_26R_35_25.jpeg,True
images/CYVR_26R_35_26.jpeg,2048,2448,earth_studio,LARD_test_synth,CYVR_26R_35,CYVR,26R,,,,2020-06-01 20:01:01,0.19,0.19,103.09,-0.38,2.77,-80.86886737829029,86.01014984204835,-1.6891980006093772,1247,1078,1182,1081,1712,1335,1132,1360,300.0,CYVR_26R_35_26.jpeg,True
images/CYYZ_05_35_00.jpeg,2048,2448,earth_studio,LARD_test_synth,CYYZ_05_35,CYYZ,05,,,,2020-07-01 17:01:01,2.78,2.78,924.14,1.36,2.96,51.38364757661107,85.5672795970848,6.513548390133329,843,1224,818,1227,810,1300,770,1305,300.0,CYYZ_05_35_00.jpeg,True
images/CYYZ_05_35_01.jpeg,2048,2448,earth_studio,LARD_test_synth,CYYZ_05_35,CYYZ,05,,,,2020-06-01 17:00:01,2.73,2.73,876.94,0.88,2.86,49.48550375497389,84.9733849723309,-2.2187808764072354,981,1132,1006,1133,938,1200,979,1202,300.0,CYYZ_05_35_01.jpeg,True
images/CYYZ_05_35_02.jpeg,2048,2448,earth_studio,LARD_test_synth,CYYZ_05_35,CYYZ,05,,,,2020-08-01 18:00:01,2.38,2.37,841.61,2.14,3.13,56.89684939219844,86.34298778408686,0.9764157573090924,474,1242,446,1243,392,1330,342,1332,300.0,CYYZ_05_35_02.jpeg,True
images/CYYZ_05_35_03.jpeg,2048,2448,earth_studio,LARD_test_synth,CYYZ_05_35,CYYZ,05,,,,2020-05-01 18:00:01,2.32,2.32,820.5,-0.09,3.11,53.36799985617886,86.6487592559215,-4.067571143427657,803,1214,831,1216,791,1299,840,1302,300.0,CYYZ_05_35_03.jpeg,True
images/CYYZ_05_35_04.jpeg,2048,2448,earth_studio,LARD_test_synth,CYYZ_05_35,CYYZ,05,,,,2020-06-01 18:00:01,2.09,2.09,575.91,-0.09,2.4,35.215419121467505,84.47029497432497,6.97089678799951,1871,1005,1841,1009,1887,1075,1832,1081,300.0,CYYZ_05_35_04.jpeg,True
images/CYYZ_05_35_05.jpeg,2048,2448,earth_studio,LARD_test_synth,CYYZ_05_35,CYYZ,05,,,,2020-06-01 18:00:01,1.95,1.95,673.37,-0.23,3.0,40.54402722335746,87.30747658972464,-0.3492068899162407,1569,1274,1599,1274,1566,1365,1624,1365,300.0,CYYZ_05_35_05.jpeg,True
images/CYYZ_05_35_06.jpeg,2048,2448,earth_studio,LARD_test_synth,CYYZ_05_35,CYYZ,05,,,,2020-07-01 20:00:01,1.53,1.53,583.07,-0.12,3.25,48.38332700131427,82.20325797286091,-7.810397975744157,1129,948,1163,953,1087,1058,1160,1067,300.0,CYYZ_05_35_06.jpeg,True
images/CYYZ_05_35_07.jpeg,2048,2448,earth_studio,LARD_test_synth,CYYZ_05_35,CYYZ,05,,,,2020-06-01 17:00:01,1.49,1.49,562.74,-0.58,3.21,50.008855759565634,84.73831936267257,7.121599525661265,1033,1136,999,1140,1107,1241,1032,1250,300.0,CYYZ_05_35_07.jpeg,True
images/CYYZ_05_35_08.jpeg,2048,2448,earth_studio,LARD_test_synth,CYYZ_05_35,CYYZ,05,,,,2020-04-01 18:01:01,1.42,1.42,502.68,-0.7,2.99,51.25551517511448,87.69801700123098,1.918604148665896,990,1289,954,1290,1064,1395,986,1398,300.0,CYYZ_05_35_08.jpeg,True
images/CYYZ_05_35_09.jpeg,2048,2448,earth_studio,LARD_test_synth,CYYZ_05_35,CYYZ,05,,,,2020-08-01 17:01:01,1.32,1.32,515.91,-0.65,3.28,40.08171431475844,83.94797619649745,-1.7778073788469737,1627,1076,1664,1077,1646,1202,1732,1205,300.0,CYYZ_05_35_09.jpeg,True
images/CYYZ_05_35_10.jpeg,2048,2448,earth_studio,LARD_test_synth,CYYZ_05_35,CYYZ,05,,,,2020-06-01 20:00:01,1.25,1.25,451.79,-0.92,3.01,48.16321314566548,89.52359060675211,-3.0594984347258283,1149,1381,1186,1382,1190,1500,1279,1505,300.0,CYYZ_05_35_10.jpeg,True
images/CYYZ_05_35_11.jpeg,2048,2448,earth_studio,LARD_test_synth,CYYZ_05_35,CYYZ,05,,,,2020-07-01 19:01:01,1.25,1.24,377.13,-1.09,2.53,46.94404276382225,86.97974720400492,-0.9586539059560328,1236,1220,1273,1220,1296,1319,1385,1321,300.0,CYYZ_05_35_11.jpeg,True
images/CYYZ_05_35_12.jpeg,2048,2448,earth_studio,LARD_test_synth,CYYZ_05_35,CYYZ,05,,,,2020-07-01 17:00:01,1.22,1.22,455.22,1.67,3.1,50.55258589374638,87.66683130491498,-6.722025419670952,867,1234,904,1238,688,1338,780,1348,300.0,CYYZ_05_35_12.jpeg,True
images/CYYZ_05_35_13.jpeg,2048,2448,earth_studio,LARD_test_synth,CYYZ_05_35,CYYZ,05,,,,2020-05-01 20:00:01,1.19,1.19,463.04,-1.41,3.22,49.18301756795004,87.5536623027033,-2.811506507607583,1121,1266,1159,1268,1205,1399,1298,1404,300.0,CYYZ_05_35_13.jpeg,True
images/CYYZ_05_35_14.jpeg,2048,2448,earth_studio,LARD_test_synth,CYYZ_05_35,CYYZ,05,,,,2020-08-01 18:00:01,1.11,1.11,356.63,-0.91,2.63,51.77270333381723,88.08046736438955,1.5221349504562771,974,1291,934,1292,1089,1397,989,1400,300.0,CYYZ_05_35_14.jpeg,True
images/CYYZ_05_35_15.jpeg,2048,2448,earth_studio,LARD_test_synth,CYYZ_05_35,CYYZ,05,,,,2020-04-01 20:00:01,1.09,1.09,382.32,0.38,2.87,48.75672904661613,87.43178647598396,0.5456573519271001,1039,1253,1079,1253,1077,1373,975,1374,300.0,CYYZ_05_35_15.jpeg,True
images/CYYZ_05_35_16.jpeg,2048,2448,earth_studio,LARD_test_synth,CYYZ_05_35,CYYZ,05,,,,2020-05-01 20:00:01,1.0,1.0,272.92,1.47,2.21,43.13392345891069,85.2186091436076,-1.1619631048501309,1316,1101,1356,1102,1132,1194,1243,1197,300.0,CYYZ_05_35_16.jpeg,True
images/CYYZ_05_35_17.jpeg,2048,2448,earth_studio,LARD_test_synth,CYYZ_05_35,CYYZ,05,,,,2020-07-01 19:01:01,0.98,0.98,402.19,-0.02,3.32,46.67163058631415,85.57002313061959,3.223888976542068,1215,1148,1174,1150,1258,1293,1144,1299,300.0,CYYZ_05_35_17.jpeg,True
images/CYYZ_05_35_18.jpeg,2048,2448,earth_studio,LARD_test_synth,CYYZ_05_35,CYYZ,05,,,,2020-05-01 20:00:01,0.96,0.96,266.58,0.83,2.23,46.62293026219863,84.76770706177983,-2.996022421392825,1153,1068,1195,1070,1025,1161,1141,1167,300.0,CYYZ_05_35_18.jpeg,True
images/CYYZ_05_35_19.jpeg,2048,2448,earth_studio,LARD_test_synth,CYYZ_05_35,CYYZ,05,,,,2020-05-01 17:00:01,0.95,0.95,301.8,-0.0,2.56,39.74734552635928,88.24693840184023,8.487388572944157,1630,1226,1588,1232,1685,1335,1567,1352,300.0,CYYZ_05_35_19.jpeg,True
images/CYYZ_05_35_20.jpeg,2048,2448,earth_studio,LARD_test_synth,CYYZ_05_35,CYYZ,05,,,,2020-06-01 19:01:01,0.94,0.94,353.29,1.19,3.02,41.0572668414726,84.26649163503204,-2.3580585923132102,1462,1070,1503,1072,1291,1200,1409,1205,300.0,CYYZ_05_35_20.jpeg,True
images/CYYZ_05_35_21.jpeg,2048,2448,earth_studio,LARD_test_synth,CYYZ_05_35,CYYZ,05,,,,2020-05-01 18:00:01,0.93,0.92,248.71,-1.05,2.15,43.42198466156402,82.2311576560358,-0.5271481766061579,1444,919,1486,919,1516,1019,1638,1021,300.0,CYYZ_05_35_21.jpeg,True
images/CYYZ_05_35_22.jpeg,2048,2448,earth_studio,LARD_test_synth,CYYZ_05_35,CYYZ,05,,,,2020-08-01 18:00:01,0.7,0.69,292.28,-0.58,3.21,47.69064056586739,87.05038192588627,-6.17490099219259,1167,1213,1213,1218,1174,1383,1334,1400,300.0,CYYZ_05_35_22.jpeg,True
images/CYYZ_05_35_23.jpeg,2048,2448,earth_studio,LARD_test_synth,CYYZ_05_35,CYYZ,05,,,,2020-06-01 18:00:01,0.69,0.69,262.43,1.07,2.89,53.62910195134502,87.803282860213,-0.7858012254259638,705,1251,752,1252,487,1403,653,1404,300.0,CYYZ_05_35_23.jpeg,True
images/CYYZ_05_35_24.jpeg,2048,2448,earth_studio,LARD_test_synth,CYYZ_05_35,CYYZ,05,,,,2020-05-01 20:01:01,0.69,0.68,255.6,-2.31,2.83,42.40408685282528,83.85532385440325,-1.2746664636576812,1578,1029,1625,1030,1853,1187,2019,1191,300.0,CYYZ_05_35_24.jpeg,True
images/CYYZ_05_35_25.jpeg,2048,2448,earth_studio,LARD_test_synth,CYYZ_05_35,CYYZ,05,,,,2020-07-01 17:00:01,0.61,0.61,311.59,-0.02,3.78,45.81794591129456,82.00784272941328,-9.298213229691864,1296,932,1343,940,1192,1129,1372,1159,300.0,CYYZ_05_35_25.jpeg,True
images/CYYZ_05_35_26.jpeg,2048,2448,earth_studio,LARD_test_synth,CYYZ_05_35,CYYZ,05,,,,2020-04-01 18:01:01,0.46,0.46,245.4,0.29,3.72,49.36413820515517,84.97415591449584,5.294305501634611,1034,1108,983,1113,1091,1341,848,1365,300.0,CYYZ_05_35_26.jpeg,True
images/CYYZ_05_35_27.jpeg,2048,2448,earth_studio,LARD_test_synth,CYYZ_05_35,CYYZ,05,,,,2020-06-01 18:01:01,0.39,0.38,191.1,0.69,3.28,47.85003229591306,86.98356484537842,-1.0406939856479231,1073,1196,1125,1197,773,1419,1064,1423,300.0,CYYZ_05_35_27.jpeg,True
images/CYYZ_05_35_28.jpeg,2048,2448,earth_studio,LARD_test_synth,CYYZ_05_35,CYYZ,05,,,,2020-05-01 19:01:01,0.36,0.36,165.03,0.9,2.95,49.51566850748797,87.06443417418414,-3.5411883811054814,967,1181,1020,1184,579,1370,889,1388,300.0,CYYZ_05_35_28.jpeg,True
images/CYYZ_05_35_29.jpeg,2048,2448,earth_studio,LARD_test_synth,CYYZ_05_35,CYYZ,05,,,,2020-07-01 19:00:01,0.21,0.21,132.15,0.43,3.31,42.52634643563066,85.83665236879705,-8.285141345676427,1428,1145,1485,1153,956,1388,1473,1466,300.0,CYYZ_05_35_29.jpeg,True
images/CYYZ_05_35_30.jpeg,2048,2448,earth_studio,LARD_test_synth,CYYZ_05_35,CYYZ,05,,,,2020-04-01 18:00:01,0.18,0.18,108.78,0.33,2.99,51.43424322228181,87.61900786915363,3.64631020172029,927,1236,868,1240,1050,1538,416,1585,300.0,CYYZ_05_35_30.jpeg,True
images/CYYZ_05_35_31.jpeg,2048,2448,earth_studio,LARD_test_synth,CYYZ_05_35,CYYZ,05,,,,2020-08-01 17:00:01,0.15,0.15,102.96,0.07,3.05,51.63183369162253,86.69625392677519,2.388159454977046,930,1173,870,1176,1230,1502,501,1541,300.0,CYYZ_05_35_31.jpeg,True
images/CYYZ_05_35_32.jpeg,2048,2448,earth_studio,LARD_test_synth,CYYZ_05_35,CYYZ,05,,,,2020-04-01 18:01:01,0.1,0.1,80.37,0.45,2.85,41.70203187454112,86.04353714279432,4.238616133799466,1491,1096,1430,1100,1600,1509,523,1579,300.0,CYYZ_05_35_32.jpeg,True
images/CYYZ_23_35_00.jpeg,2048,2448,earth_studio,LARD_test_synth,CYYZ_23_35,CYYZ,23,,,,2020-07-01 18:00:01,2.75,2.75,988.74,0.7,3.2,-131.85120533868513,87.71696392502137,-7.037702243630399,1071,1294,1096,1297,1028,1367,1068,1372,300.0,CYYZ_23_35_00.jpeg,True
images/CYYZ_23_35_01.jpeg,2048,2448,earth_studio,LARD_test_synth,CYYZ_23_35,CYYZ,23,,,,2020-06-01 17:01:01,2.73,2.73,992.56,0.55,3.23,-135.26385902727958,86.20972572269366,-3.076819589219152,1285,1228,1310,1229,1252,1305,1293,1307,300.0,CYYZ_23_35_01.jpeg,True
images/CYYZ_23_35_02.jpeg,2048,2448,earth_studio,LARD_test_synth,CYYZ_23_35,CYYZ,23,,,,2020-08-01 17:01:01,2.49,2.48,1016.29,0.09,3.62,-138.23002301768088,87.13425361703153,-3.373646989323789,1494,1306,1521,1308,1483,1400,1528,1403,300.0,CYYZ_23_35_02.jpeg,True
images/CYYZ_23_35_03.jpeg,2048,2448,earth_studio,LARD_test_synth,CYYZ_23_35,CYYZ,23,,,,2020-05-01 18:00:01,2.33,2.32,881.62,-0.44,3.34,-142.53875614963826,86.56372813434749,-0.4573676935765086,1773,1248,1801,1249,1780,1340,1829,1341,300.0,CYYZ_23_35_03.jpeg,True
images/CYYZ_23_35_04.jpeg,2048,2448,earth_studio,LARD_test_synth,CYYZ_23_35,CYYZ,23,,,,2020-08-01 19:00:01,2.24,2.23,693.47,1.25,2.72,-125.842439183339,86.97294957593593,-4.934958086098826,682,1197,711,1199,608,1268,658,1272,300.0,CYYZ_23_35_04.jpeg,True
images/CYYZ_23_35_05.jpeg,2048,2448,earth_studio,LARD_test_synth,CYYZ_23_35,CYYZ,23,,,,2020-05-01 17:01:01,2.19,2.18,806.52,2.02,3.24,-138.338354813725,85.65065801946676,3.9988047309101216,1393,1170,1365,1171,1318,1266,1267,1269,300.0,CYYZ_23_35_05.jpeg,True
images/CYYZ_23_35_06.jpeg,2048,2448,earth_studio,LARD_test_synth,CYYZ_23_35,CYYZ,23,,,,2020-04-01 18:00:01,2.13,2.13,614.7,0.41,2.52,-133.82902056692822,89.60452894802414,4.180547106937637,1234,1389,1205,1392,1232,1462,1180,1466,300.0,CYYZ_23_35_06.jpeg,True
images/CYYZ_23_35_07.jpeg,2048,2448,earth_studio,LARD_test_synth,CYYZ_23_35,CYYZ,23,,,,2020-07-01 19:00:01,2.12,2.11,724.13,1.99,3.0,-124.59655007134891,85.49235731065647,-0.2835640593466459,552,1161,582,1161,442,1249,497,1249,300.0,CYYZ_23_35_07.jpeg,True
images/CYYZ_23_35_08.jpeg,2048,2448,earth_studio,LARD_test_synth,CYYZ_23_35,CYYZ,23,,,,2020-04-01 17:00:01,2.11,2.11,680.25,0.7,2.82,-134.16551189092974,84.8945120712959,-3.696283199975949,1217,1119,1246,1121,1167,1197,1219,1201,300.0,CYYZ_23_35_08.jpeg,True
images/CYYZ_23_35_09.jpeg,2048,2448,earth_studio,LARD_test_synth,CYYZ_23_35,CYYZ,23,,,,2020-07-01 17:01:01,2.09,2.09,687.21,0.44,2.88,-124.64205367103791,90.0877120823542,-2.286622656778356,644,1409,674,1410,606,1492,661,1494,300.0,CYYZ_23_35_09.jpeg,True
images/CYYZ_23_35_10.jpeg,2048,2448,earth_studio,LARD_test_synth,CYYZ_23_35,CYYZ,23,,,,2020-07-01 17:00:01,1.89,1.89,744.73,1.15,3.42,-127.69351505941589,85.11835221774909,4.558452912134407,809,1183,777,1185,771,1292,711,1298,300.0,CYYZ_23_35_10.jpeg,True
images/CYYZ_23_35_11.jpeg,2048,2448,earth_studio,LARD_test_synth,CYYZ_23_35,CYYZ,23,,,,2020-06-01 18:01:01,1.81,1.8,736.35,-0.4,3.52,-131.77508341813444,86.17000378942762,-4.653058603264098,1134,1206,1165,1208,1132,1317,1193,1322,300.0,CYYZ_23_35_11.jpeg,True
images/CYYZ_23_35_12.jpeg,2048,2448,earth_studio,LARD_test_synth,CYYZ_23_35,CYYZ,23,,,,2020-07-01 20:00:01,1.79,1.79,650.3,-1.42,3.14,-125.57843073046436,85.34967873700886,4.538280458092419,833,1182,801,1185,936,1274,874,1280,300.0,CYYZ_23_35_12.jpeg,True
images/CYYZ_23_35_13.jpeg,2048,2448,earth_studio,LARD_test_synth,CYYZ_23_35,CYYZ,23,,,,2020-05-01 19:00:01,1.61,1.61,525.18,0.06,2.78,-140.3072155996858,84.20848490147581,-4.145819180950966,1630,1097,1664,1099,1609,1191,1678,1196,300.0,CYYZ_23_35_13.jpeg,True
images/CYYZ_23_35_14.jpeg,2048,2448,earth_studio,LARD_test_synth,CYYZ_23_35,CYYZ,23,,,,2020-04-01 20:00:01,1.61,1.61,704.0,-0.87,3.74,-137.187964565362,86.3503153688014,10.288628175865329,1484,1177,1451,1183,1577,1289,1509,1301,300.0,CYYZ_23_35_14.jpeg,True
images/CYYZ_23_35_15.jpeg,2048,2448,earth_studio,LARD_test_synth,CYYZ_23_35,CYYZ,23,,,,2020-06-01 17:01:01,1.54,1.53,435.39,-1.3,2.42,-132.69051246478443,88.24903807356334,6.401005024627486,1260,1290,1226,1294,1372,1362,1300,1370,300.0,CYYZ_23_35_15.jpeg,True
images/CYYZ_23_35_16.jpeg,2048,2448,earth_studio,LARD_test_synth,CYYZ_23_35,CYYZ,23,,,,2020-07-01 20:01:01,1.48,1.47,462.11,1.76,2.66,-139.85909394604087,86.54181915719943,7.293134560129646,1494,1164,1460,1168,1407,1270,1332,1279,300.0,CYYZ_23_35_16.jpeg,True
images/CYYZ_23_35_17.jpeg,2048,2448,earth_studio,LARD_test_synth,CYYZ_23_35,CYYZ,23,,,,2020-06-01 17:01:01,1.46,1.45,508.93,-0.93,2.96,-139.1811830395017,90.02675464322517,0.1946544313663736,1594,1414,1630,1414,1638,1521,1716,1521,300.0,CYYZ_23_35_17.jpeg,True
images/CYYZ_23_35_18.jpeg,2048,2448,earth_studio,LARD_test_synth,CYYZ_23_35,CYYZ,23,,,,2020-07-01 17:01:01,1.22,1.22,407.93,0.26,2.78,-123.5329637032186,83.54175958885736,2.771348082998061,609,1047,569,1049,622,1159,528,1164,300.0,CYYZ_23_35_18.jpeg,True
images/CYYZ_23_35_19.jpeg,2048,2448,earth_studio,LARD_test_synth,CYYZ_23_35,CYYZ,23,,,,2020-04-01 20:01:01,1.16,1.16,462.22,0.8,3.3,-128.1829945975536,85.63504854559105,6.044873402438096,858,1192,819,1196,833,1330,736,1341,300.0,CYYZ_23_35_19.jpeg,True
images/CYYZ_23_35_20.jpeg,2048,2448,earth_studio,LARD_test_synth,CYYZ_23_35,CYYZ,23,,,,2020-04-01 18:00:01,1.08,1.08,344.45,1.13,2.61,-129.92951980885516,83.54450873596204,-2.9511010994364915,936,993,976,995,794,1097,898,1102,300.0,CYYZ_23_35_20.jpeg,True
images/CYYZ_23_35_21.jpeg,2048,2448,earth_studio,LARD_test_synth,CYYZ_23_35,CYYZ,23,,,,2020-08-01 20:01:01,0.98,0.98,429.68,-1.23,3.53,-138.24961479714645,82.33974299061225,-4.43338335876115,1581,983,1622,986,1656,1148,1770,1157,300.0,CYYZ_23_35_21.jpeg,True
images/CYYZ_23_35_22.jpeg,2048,2448,earth_studio,LARD_test_synth,CYYZ_23_35,CYYZ,23,,,,2020-06-01 19:00:01,0.95,0.95,275.88,0.77,2.33,-129.47544973808402,84.77949688343064,-7.763057795980504,950,1031,992,1037,819,1120,935,1136,300.0,CYYZ_23_35_22.jpeg,True
images/CYYZ_23_35_23.jpeg,2048,2448,earth_studio,LARD_test_synth,CYYZ_23_35,CYYZ,23,,,,2020-06-01 17:01:01,0.82,0.82,309.25,1.17,2.96,-128.631377666391,84.59064762980535,-7.405682629044506,873,1022,917,1028,667,1142,803,1159,300.0,CYYZ_23_35_23.jpeg,True
images/CYYZ_23_35_24.jpeg,2048,2448,earth_studio,LARD_test_synth,CYYZ_23_35,CYYZ,23,,,,2020-06-01 19:01:01,0.81,0.8,378.17,-1.39,3.69,-130.94993434074,86.57297253790408,4.479421087736367,1160,1208,1116,1211,1391,1370,1254,1381,300.0,CYYZ_23_35_24.jpeg,True
images/CYYZ_23_35_25.jpeg,2048,2448,earth_studio,LARD_test_synth,CYYZ_23_35,CYYZ,23,,,,2020-04-01 18:00:01,0.74,0.74,280.09,-0.37,2.91,-132.42193204881875,84.42885748032619,-1.1744117274953183,1158,1054,1204,1055,1153,1201,1302,1204,300.0,CYYZ_23_35_25.jpeg,True
images/CYYZ_23_35_26.jpeg,2048,2448,earth_studio,LARD_test_synth,CYYZ_23_35,CYYZ,23,,,,2020-05-01 19:01:01,0.65,0.65,291.2,0.1,3.37,-126.37556086959212,84.19923871865511,4.821996452875047,788,1083,740,1087,853,1262,681,1278,300.0,CYYZ_23_35_26.jpeg,True
images/CYYZ_23_35_27.jpeg,2048,2448,earth_studio,LARD_test_synth,CYYZ_23_35,CYYZ,23,,,,2020-05-01 18:00:01,0.59,0.59,243.33,0.68,3.03,-142.6476842223632,86.7001266293648,-5.855144399987648,1713,1236,1762,1241,1511,1386,1698,1407,300.0,CYYZ_23_35_27.jpeg,True
images/CYYZ_23_35_28.jpeg,2048,2448,earth_studio,LARD_test_synth,CYYZ_23_35,CYYZ,23,,,,2020-05-01 19:01:01,0.49,0.49,168.34,0.76,2.42,-139.9565799610265,83.98867761866393,6.7138554537837445,1547,967,1496,973,1498,1124,1275,1149,300.0,CYYZ_23_35_28.jpeg,True
images/CYYZ_23_35_29.jpeg,2048,2448,earth_studio,LARD_test_synth,CYYZ_23_35,CYYZ,23,,,,2020-06-01 17:00:01,0.43,0.43,136.27,0.63,2.15,-135.46704972066,86.18482149031855,6.829638973696853,1301,1121,1250,1127,1277,1266,1023,1296,300.0,CYYZ_23_35_29.jpeg,True
images/DAAS_27_35_00.jpeg,2048,2448,earth_studio,LARD_test_synth,DAAS_27_35,DAAS,27,,,,2020-04-01 13:00:01,2.72,2.71,935.96,-1.82,3.07,-96.53008070768423,87.12680372519833,-2.6089898041313173,1306,1280,1326,1281,1234,1347,1265,1349,300.0,DAAS_27_35_00.jpeg,False
images/DAAS_27_35_01.jpeg,2048,2448,earth_studio,LARD_test_synth,DAAS_27_35,DAAS,27,,,,2020-07-01 12:00:01,2.61,2.6,1090.98,0.21,3.72,-96.4526310594424,86.33284145753335,5.247873546996267,1435,1234,1415,1236,1456,1321,1424,1323,300.0,DAAS_27_35_01.jpeg,True
images/DAAS_27_35_02.jpeg,2048,2448,earth_studio,LARD_test_synth,DAAS_27_35,DAAS,27,,,,2020-04-01 12:00:01,2.54,2.54,854.48,0.13,2.98,-89.59656628805291,84.62979232319498,-10.200874586180747,1049,1088,1069,1091,1035,1158,1068,1164,300.0,DAAS_27_35_02.jpeg,False
images/DAAS_27_35_03.jpeg,2048,2448,earth_studio,LARD_test_synth,DAAS_27_35,DAAS,27,,,,2020-07-01 13:00:01,2.4,2.39,1007.1,2.29,3.71,-93.59584917288188,85.43718775903962,2.8179420216432165,1393,1188,1372,1189,1495,1276,1459,1277,300.0,DAAS_27_35_03.jpeg,False
images/DAAS_27_35_04.jpeg,2048,2448,earth_studio,LARD_test_synth,DAAS_27_35,DAAS,27,,,,2020-07-01 15:00:01,2.28,2.27,853.56,-0.87,3.3,-96.97518954313009,86.4015505160094,4.970072368850745,1400,1220,1379,1221,1379,1307,1342,1310,300.0,DAAS_27_35_04.jpeg,False
images/DAAS_27_35_05.jpeg,2048,2448,earth_studio,LARD_test_synth,DAAS_27_35,DAAS,27,,,,2020-07-01 13:01:01,2.07,2.06,868.03,1.58,3.67,-99.01251609857624,86.25394701629813,4.837529396347676,1672,1198,1649,1200,1762,1294,1721,1297,300.0,DAAS_27_35_05.jpeg,False
images/DAAS_27_35_06.jpeg,2048,2448,earth_studio,LARD_test_synth,DAAS_27_35,DAAS,27,,,,2020-05-01 12:00:01,2.02,2.01,633.63,-0.16,2.74,-94.73368499886408,87.82257127202018,-1.924516584886683,1297,1296,1320,1297,1277,1372,1319,1374,300.0,DAAS_27_35_06.jpeg,False
images/DAAS_27_35_07.jpeg,2048,2448,earth_studio,LARD_test_synth,DAAS_27_35,DAAS,27,,,,2020-05-01 15:00:01,1.78,1.77,656.15,2.18,3.19,-83.61257627619844,88.31879683332414,10.583262311980286,809,1412,784,1417,954,1483,907,1493,300.0,DAAS_27_35_07.jpeg,False
images/DAAS_27_35_08.jpeg,2048,2448,earth_studio,LARD_test_synth,DAAS_27_35,DAAS,27,,,,2020-04-01 14:00:01,1.62,1.62,551.56,0.37,2.91,-83.80264950317981,83.66253349811421,0.069463128145972,697,1045,671,1046,735,1140,681,1141,300.0,DAAS_27_35_08.jpeg,True
images/DAAS_27_35_09.jpeg,2048,2448,earth_studio,LARD_test_synth,DAAS_27_35,DAAS,27,,,,2020-05-01 15:01:01,1.55,1.54,599.76,0.12,3.3,-88.30251427519505,89.45381164418477,1.2506524465749678,957,1405,930,1406,981,1514,926,1516,300.0,DAAS_27_35_09.jpeg,True
images/DAAS_27_35_10.jpeg,2048,2448,earth_studio,LARD_test_synth,DAAS_27_35,DAAS,27,,,,2020-04-01 12:00:01,1.48,1.48,513.91,1.04,2.95,-83.78456023669493,88.04023585052428,-7.4789194288673055,720,1236,747,1240,759,1343,817,1350,300.0,DAAS_27_35_10.jpeg,True
images/DAAS_27_35_11.jpeg,2048,2448,earth_studio,LARD_test_synth,DAAS_27_35,DAAS,27,,,,2020-07-01 15:01:01,1.39,1.39,486.97,1.25,2.95,-87.93771994139013,85.68079335682721,1.5168946098097444,998,1165,970,1166,1104,1266,1043,1268,300.0,DAAS_27_35_11.jpeg,False
images/DAAS_27_35_12.jpeg,2048,2448,earth_studio,LARD_test_synth,DAAS_27_35,DAAS,27,,,,2020-06-01 13:00:01,1.3,1.29,362.82,0.91,2.34,-96.09135766132502,85.55432258470627,-6.791887014967055,1460,1157,1489,1161,1498,1248,1563,1256,300.0,DAAS_27_35_12.jpeg,True
images/DAAS_27_35_13.jpeg,2048,2448,earth_studio,LARD_test_synth,DAAS_27_35,DAAS,27,,,,2020-05-01 13:01:01,1.29,1.29,495.94,-1.57,3.21,-92.28074054875262,85.88240569998976,-6.243672913950479,1077,1159,1106,1162,931,1262,996,1269,300.0,DAAS_27_35_13.jpeg,True
images/DAAS_27_35_14.jpeg,2048,2448,earth_studio,LARD_test_synth,DAAS_27_35,DAAS,27,,,,2020-08-01 12:00:01,1.26,1.25,428.52,-1.39,2.85,-83.08493825315647,84.32839762229453,-0.343231298801503,515,1069,546,1069,385,1178,456,1178,300.0,DAAS_27_35_14.jpeg,True
images/DAAS_27_35_15.jpeg,2048,2448,earth_studio,LARD_test_synth,DAAS_27_35,DAAS,27,,,,2020-08-01 13:00:01,1.2,1.2,403.77,0.63,2.79,-88.69829740617755,87.84948275944689,-1.8078025646560127,983,1270,1013,1271,1009,1377,1080,1379,300.0,DAAS_27_35_15.jpeg,True
images/DAAS_27_35_16.jpeg,2048,2448,earth_studio,LARD_test_synth,DAAS_27_35,DAAS,27,,,,2020-08-01 15:01:01,1.2,1.19,478.9,0.04,3.32,-96.1056803768575,90.03712727812511,6.742414783220587,1426,1400,1396,1403,1464,1524,1393,1532,300.0,DAAS_27_35_16.jpeg,True
images/DAAS_27_35_17.jpeg,2048,2448,earth_studio,LARD_test_synth,DAAS_27_35,DAAS,27,,,,2020-07-01 13:01:01,1.13,1.12,426.6,1.36,3.12,-96.14949943634213,88.24455461132752,5.3212829779382185,1497,1282,1467,1285,1647,1393,1572,1400,300.0,DAAS_27_35_17.jpeg,False
images/DAAS_27_35_18.jpeg,2048,2448,earth_studio,LARD_test_synth,DAAS_27_35,DAAS,27,,,,2020-08-01 13:00:01,0.99,0.98,438.98,-1.49,3.6,-93.50863892983556,87.10653051174243,-15.583038833549312,1160,1227,1191,1236,954,1328,1037,1352,300.0,DAAS_27_35_18.jpeg,True
images/DAAS_27_35_19.jpeg,2048,2448,earth_studio,LARD_test_synth,DAAS_27_35,DAAS,27,,,,2020-06-01 12:01:01,0.91,0.91,309.52,0.31,2.72,-93.8966367558644,80.38829995906501,1.5338920261961937,1290,817,1256,818,1355,938,1262,940,300.0,DAAS_27_35_19.jpeg,True
images/DAAS_27_35_20.jpeg,2048,2448,earth_studio,LARD_test_synth,DAAS_27_35,DAAS,27,,,,2020-08-01 13:01:01,0.86,0.86,310.92,-0.8,2.85,-97.14325346064658,84.6452068444868,-4.356753480805566,1412,1090,1446,1093,1280,1210,1378,1218,300.0,DAAS_27_35_20.jpeg,True
images/DAAS_27_35_21.jpeg,2048,2448,earth_studio,LARD_test_synth,DAAS_27_35,DAAS,27,,,,2020-06-01 12:00:01,0.86,0.86,293.54,-0.39,2.71,-93.4753843982438,85.43852870274563,7.465780392816054,1208,1120,1174,1124,1212,1244,1114,1257,300.0,DAAS_27_35_21.jpeg,True
images/DAAS_27_35_22.jpeg,2048,2448,earth_studio,LARD_test_synth,DAAS_27_35,DAAS,27,,,,2020-05-01 12:00:01,0.82,0.82,329.15,0.28,3.15,-89.22360630348439,84.45400425928531,-6.705299395290478,1019,1045,1054,1049,1001,1192,1104,1203,300.0,DAAS_27_35_22.jpeg,True
images/DAAS_27_35_23.jpeg,2048,2448,earth_studio,LARD_test_synth,DAAS_27_35,DAAS,27,,,,2020-06-01 13:00:01,0.71,0.71,289.42,-0.41,3.11,-94.60157918028712,86.22646419671882,2.101094785340569,1295,1167,1259,1168,1286,1323,1168,1328,300.0,DAAS_27_35_23.jpeg,True
images/DAAS_27_35_24.jpeg,2048,2448,earth_studio,LARD_test_synth,DAAS_27_35,DAAS,27,,,,2020-05-01 13:01:01,0.68,0.67,271.62,1.16,3.05,-97.3456193524652,86.41795517898872,4.841084154589225,1549,1150,1512,1153,1773,1290,1646,1301,300.0,DAAS_27_35_24.jpeg,True
images/DAAS_27_35_25.jpeg,2048,2448,earth_studio,LARD_test_synth,DAAS_27_35,DAAS,27,,,,2020-05-01 15:01:01,0.66,0.66,255.46,-0.12,2.91,-93.1796652623698,86.18737436584097,-8.623415520263864,1223,1158,1259,1164,1138,1299,1264,1318,300.0,DAAS_27_35_25.jpeg,True
images/DAAS_27_35_26.jpeg,2048,2448,earth_studio,LARD_test_synth,DAAS_27_35,DAAS,27,,,,2020-04-01 14:01:01,0.62,0.62,238.51,-0.21,2.87,-91.9649464484005,91.1973931614776,12.34548025819966,1187,1466,1150,1474,1237,1614,1103,1643,300.0,DAAS_27_35_26.jpeg,True
images/DAAS_27_35_27.jpeg,2048,2448,earth_studio,LARD_test_synth,DAAS_27_35,DAAS,27,,,,2020-06-01 13:01:01,0.48,0.47,205.92,-0.23,3.03,-92.04187373888544,86.85230693841984,8.3770935277315,1143,1202,1103,1208,1192,1383,1016,1409,300.0,DAAS_27_35_27.jpeg,True
images/DAAS_27_35_28.jpeg,2048,2448,earth_studio,LARD_test_synth,DAAS_27_35,DAAS,27,,,,2020-06-01 13:00:01,0.27,0.27,160.69,0.29,3.51,-86.01030980123025,83.77673540919791,-0.677828057021989,793,996,839,997,1079,1286,762,1287,300.0,DAAS_27_35_28.jpeg,True
images/DAAS_27_35_29.jpeg,2048,2448,earth_studio,LARD_test_synth,DAAS_27_35,DAAS,27,,,,2020-06-01 13:00:01,0.2,0.2,129.25,0.8,3.35,-88.18861070999625,87.83784012578461,-5.571362793549946,963,1209,1010,1214,1132,1549,1549,1585,300.0,DAAS_27_35_29.jpeg,True
images/DAAS_27_35_30.jpeg,2048,2448,earth_studio,LARD_test_synth,DAAS_27_35,DAAS,27,,,,2020-05-01 14:00:01,0.14,0.13,92.89,-0.62,2.93,-91.47253273050252,88.71722807900382,-1.0964471936421456,1060,1273,1109,1274,308,1620,946,1629,300.0,DAAS_27_35_30.jpeg,True
images/DAAS_9_35_00.jpeg,2048,2448,earth_studio,LARD_test_synth,DAAS_9_35,DAAS,9,,,,2020-07-01 14:00:01,2.49,2.49,1058.52,-0.53,3.76,85.38299674899989,83.9810912459597,-0.1018971204282261,1264,1118,1285,1118,1237,1210,1270,1210,300.0,DAAS_9_35_00.jpeg,False
images/DAAS_9_35_01.jpeg,2048,2448,earth_studio,LARD_test_synth,DAAS_9_35,DAAS,9,,,,2020-08-01 12:01:01,2.46,2.46,732.29,0.17,2.63,94.49729977428863,85.19406760375217,3.0951992549783003,774,1170,752,1172,791,1235,757,1237,300.0,DAAS_9_35_01.jpeg,True
images/DAAS_9_35_02.jpeg,2048,2448,earth_studio,LARD_test_synth,DAAS_9_35,DAAS,9,,,,2020-07-01 13:00:01,2.33,2.33,758.23,-1.07,2.87,87.79832678961436,89.3604222187234,-8.463532559464088,1077,1379,1099,1382,1016,1444,1051,1450,300.0,DAAS_9_35_02.jpeg,False
images/DAAS_9_35_03.jpeg,2048,2448,earth_studio,LARD_test_synth,DAAS_9_35,DAAS,9,,,,2020-06-01 15:01:01,2.3,2.29,708.47,-0.14,2.72,80.97066993058168,86.12475390903413,-5.203025732677027,1559,1232,1581,1234,1540,1301,1576,1304,300.0,DAAS_9_35_03.jpeg,True
images/DAAS_9_35_04.jpeg,2048,2448,earth_studio,LARD_test_synth,DAAS_9_35,DAAS,9,,,,2020-06-01 14:00:01,2.27,2.27,700.9,-0.65,2.71,83.47589481045594,86.26778574424347,0.0423002999078054,1369,1210,1391,1210,1335,1280,1371,1280,300.0,DAAS_9_35_04.jpeg,True
images/DAAS_9_35_05.jpeg,2048,2448,earth_studio,LARD_test_synth,DAAS_9_35,DAAS,9,,,,2020-06-01 14:01:01,2.13,2.13,655.88,-1.81,2.7,81.07963025780764,83.41339361560838,-1.958102541602842,1451,1044,1474,1045,1359,1114,1397,1116,300.0,DAAS_9_35_05.jpeg,False
images/DAAS_9_35_06.jpeg,2048,2448,earth_studio,LARD_test_synth,DAAS_9_35,DAAS,9,,,,2020-05-01 12:00:01,2.13,2.13,871.93,0.58,3.58,80.43084650877378,84.85779324606749,5.541241082689572,1631,1116,1608,1118,1673,1210,1634,1214,300.0,DAAS_9_35_06.jpeg,True
images/DAAS_9_35_07.jpeg,2048,2448,earth_studio,LARD_test_synth,DAAS_9_35,DAAS,9,,,,2020-05-01 13:01:01,2.12,2.12,684.01,-1.62,2.82,90.09997644257004,85.7644634551128,6.707548927297584,924,1216,901,1219,869,1300,830,1305,300.0,DAAS_9_35_07.jpeg,False
images/DAAS_9_35_08.jpeg,2048,2448,earth_studio,LARD_test_synth,DAAS_9_35,DAAS,9,,,,2020-08-01 15:01:01,2.01,2.0,654.44,-1.85,2.85,87.4164649855144,87.00757797479153,-2.9709339752448782,1065,1246,1088,1247,964,1321,1005,1323,300.0,DAAS_9_35_08.jpeg,False
images/DAAS_9_35_09.jpeg,2048,2448,earth_studio,LARD_test_synth,DAAS_9_35,DAAS,9,,,,2020-05-01 12:01:01,1.95,1.95,460.58,0.32,2.05,82.97230951438668,83.65128128758182,-3.4072211743454908,1475,1039,1499,1040,1478,1098,1520,1101,300.0,DAAS_9_35_09.jpeg,True
images/DAAS_9_35_10.jpeg,2048,2448,earth_studio,LARD_test_synth,DAAS_9_35,DAAS,9,,,,2020-06-01 12:00:01,1.58,1.58,440.04,0.29,2.38,92.39273414336267,84.9237145421761,-1.8919167861471065,900,1095,927,1095,903,1173,955,1174,300.0,DAAS_9_35_10.jpeg,True
images/DAAS_9_35_11.jpeg,2048,2448,earth_studio,LARD_test_synth,DAAS_9_35,DAAS,9,,,,2020-05-01 14:00:01,1.49,1.49,414.8,-0.27,2.37,85.03521578553841,82.58170096167073,7.232663020495722,1279,953,1251,956,1285,1033,1229,1040,300.0,DAAS_9_35_11.jpeg,True
images/DAAS_9_35_12.jpeg,2048,2448,earth_studio,LARD_test_synth,DAAS_9_35,DAAS,9,,,,2020-06-01 12:01:01,1.43,1.42,616.47,-1.25,3.65,83.85519151968306,86.06188194164874,-0.5837116721972333,1308,1211,1336,1211,1209,1336,1267,1336,300.0,DAAS_9_35_12.jpeg,True
images/DAAS_9_35_13.jpeg,2048,2448,earth_studio,LARD_test_synth,DAAS_9_35,DAAS,9,,,,2020-08-01 14:01:01,1.37,1.37,437.67,-0.36,2.69,84.04744044524433,86.97762173948362,8.809291630131156,1362,1210,1334,1214,1367,1305,1308,1314,300.0,DAAS_9_35_13.jpeg,True
images/DAAS_9_35_14.jpeg,2048,2448,earth_studio,LARD_test_synth,DAAS_9_35,DAAS,9,,,,2020-06-01 13:00:01,1.36,1.36,603.49,-1.26,3.73,80.30437638356948,85.5068359453747,5.043623186936426,1532,1149,1503,1152,1470,1288,1410,1293,300.0,DAAS_9_35_14.jpeg,True
images/DAAS_9_35_15.jpeg,2048,2448,earth_studio,LARD_test_synth,DAAS_9_35,DAAS,9,,,,2020-04-01 15:01:01,1.3,1.3,401.14,0.32,2.58,86.76862737735765,88.04322583820982,1.8342704483029693,1257,1289,1228,1290,1301,1382,1237,1384,300.0,DAAS_9_35_15.jpeg,True
images/DAAS_9_35_16.jpeg,2048,2448,earth_studio,LARD_test_synth,DAAS_9_35,DAAS,9,,,,2020-06-01 15:01:01,1.18,1.18,406.17,0.98,2.84,85.37907282754276,87.43368867169737,2.4704872332295253,1379,1252,1348,1253,1482,1357,1412,1360,300.0,DAAS_9_35_16.jpeg,True
images/DAAS_9_35_17.jpeg,2048,2448,earth_studio,LARD_test_synth,DAAS_9_35,DAAS,9,,,,2020-05-01 13:00:01,1.08,1.08,372.48,-0.66,2.83,87.31209923089693,88.36060316866744,0.7496760208354616,1167,1310,1135,1311,1132,1425,1056,1426,300.0,DAAS_9_35_17.jpeg,True
images/DAAS_9_35_18.jpeg,2048,2448,earth_studio,LARD_test_synth,DAAS_9_35,DAAS,9,,,,2020-04-01 13:01:01,0.96,0.96,323.91,0.58,2.71,87.12876897936866,85.55730633598473,6.156794045795292,1235,1133,1202,1137,1331,1240,1246,1249,300.0,DAAS_9_35_18.jpeg,True
images/DAAS_9_35_19.jpeg,2048,2448,earth_studio,LARD_test_synth,DAAS_9_35,DAAS,9,,,,2020-08-01 13:00:01,0.91,0.91,313.76,0.35,2.76,85.35730157210136,84.9813450896253,1.129038729235183,1343,1098,1308,1099,1410,1219,1319,1221,300.0,DAAS_9_35_19.jpeg,True
images/DAAS_9_35_20.jpeg,2048,2448,earth_studio,LARD_test_synth,DAAS_9_35,DAAS,9,,,,2020-05-01 12:00:01,0.82,0.82,290.03,0.79,2.78,86.09032203837705,84.13482776938493,5.6426743206979495,1304,1038,1269,1041,1442,1156,1341,1165,300.0,DAAS_9_35_20.jpeg,True
images/DAAS_9_35_21.jpeg,2048,2448,earth_studio,LARD_test_synth,DAAS_9_35,DAAS,9,,,,2020-07-01 13:01:01,0.6,0.6,208.46,0.31,2.59,80.06306771898943,84.32274328177544,-5.827647203725991,1652,1086,1691,1090,1635,1229,1776,1244,300.0,DAAS_9_35_21.jpeg,True
images/DAAS_9_35_22.jpeg,2048,2448,earth_studio,LARD_test_synth,DAAS_9_35,DAAS,9,,,,2020-07-01 14:00:01,0.44,0.44,160.13,-0.82,2.49,80.58050021930737,86.08358084652936,0.0620727800923613,1522,1139,1564,1139,1271,1296,1457,1297,300.0,DAAS_9_35_22.jpeg,True
images/DAAS_9_35_23.jpeg,2048,2448,earth_studio,LARD_test_synth,DAAS_9_35,DAAS,9,,,,2020-05-01 14:00:01,0.41,0.41,147.68,-0.87,2.43,89.07158128041786,85.93249250155104,2.687364118829445,1046,1135,1003,1138,926,1302,723,1312,300.0,DAAS_9_35_23.jpeg,True
images/DAAS_9_35_24.jpeg,2048,2448,earth_studio,LARD_test_synth,DAAS_9_35,DAAS,9,,,,2020-05-01 15:00:01,0.38,0.38,171.78,0.86,3.0,88.22583118915794,81.52266700041639,-4.27325138835117,1203,868,1247,871,1321,1086,1540,1102,300.0,DAAS_9_35_24.jpeg,True
images/DAAS_9_35_25.jpeg,2048,2448,earth_studio,LARD_test_synth,DAAS_9_35,DAAS,9,,,,2020-07-01 14:00:01,0.37,0.37,173.58,-0.31,3.07,85.66615176674003,87.98099337793185,-7.131749835811672,1257,1261,1301,1267,1061,1451,1282,1479,300.0,DAAS_9_35_25.jpeg,True
images/DAAS_9_35_26.jpeg,2048,2448,earth_studio,LARD_test_synth,DAAS_9_35,DAAS,9,,,,2020-06-01 13:01:01,0.35,0.35,149.45,0.25,2.73,76.83013894073905,89.80800900063103,3.370637348693495,1861,1323,1815,1325,2042,1513,1798,1524,300.0,DAAS_9_35_26.jpeg,True
images/DAAS_9_35_27.jpeg,2048,2448,earth_studio,LARD_test_synth,DAAS_9_35,DAAS,9,,,,2020-05-01 14:01:01,0.3,0.3,125.37,0.03,2.53,84.94699208812591,85.53033293805548,2.673247920004376,1347,1093,1302,1095,1479,1282,1206,1294,300.0,DAAS_9_35_27.jpeg,True
images/DAAS_9_35_28.jpeg,2048,2448,earth_studio,LARD_test_synth,DAAS_9_35,DAAS,9,,,,2020-05-01 13:00:01,0.11,0.11,93.86,0.57,3.19,89.07519974723996,85.83111226050995,-12.19470297668452,1146,1089,1196,1099,1204,1544,1909,1693,300.0,DAAS_9_35_28.jpeg,True
images/EDDV_09L_35_02.jpeg,2048,2448,earth_studio,LARD_test_synth,EDDV_09L_35,EDDV,09L,,,,2020-08-01 14:01:01,2.03,2.03,422.49,-1.2,1.82,97.50872275164244,83.518733920888,4.789287334110403,1409,1128,1387,1129,1363,1185,1323,1188,300.0,EDDV_09L_35_02.jpeg,True
images/EDDV_09L_35_03.jpeg,2048,2448,earth_studio,LARD_test_synth,EDDV_09L_35,EDDV,09L,,,,2020-07-01 14:00:01,1.98,1.97,641.32,0.33,2.82,95.03607045394692,84.38390144518817,9.27049044079088,1543,1249,1566,1250,1549,1334,1591,1335,300.0,EDDV_09L_35_03.jpeg,True
images/EDDV_09L_35_04.jpeg,2048,2448,earth_studio,LARD_test_synth,EDDV_09L_35,EDDV,09L,,,,2020-06-01 15:01:01,1.93,1.93,570.7,-1.27,2.57,88.1800784933711,85.83638035201366,4.304965884129017,1155,1108,1132,1109,1103,1189,1061,1191,300.0,EDDV_09L_35_04.jpeg,True
images/EDDV_09L_35_05.jpeg,2048,2448,earth_studio,LARD_test_synth,EDDV_09L_35,EDDV,09L,,,,2020-07-01 14:01:01,1.89,1.88,700.54,-0.29,3.22,87.32086842112544,86.98748559953978,-0.7813929021328418,1223,1064,1246,1065,1192,1162,1235,1165,300.0,EDDV_09L_35_05.jpeg,True
images/EDDV_09L_35_06.jpeg,2048,2448,earth_studio,LARD_test_synth,EDDV_09L_35,EDDV,09L,,,,2020-06-01 13:01:01,1.83,1.83,564.63,-0.55,2.67,92.43894102372428,84.80124248336136,2.9443066284565083,1135,1112,1112,1113,1120,1197,1075,1199,300.0,EDDV_09L_35_06.jpeg,True
images/EDDV_09L_35_07.jpeg,2048,2448,earth_studio,LARD_test_synth,EDDV_09L_35,EDDV,09L,,,,2020-04-01 15:01:01,1.75,1.75,859.91,0.86,4.23,92.3101176834847,83.77011575202285,-3.177961477498088,1417,1184,1441,1185,1446,1323,1493,1325,300.0,EDDV_09L_35_07.jpeg,True
images/EDDV_09L_35_08.jpeg,2048,2448,earth_studio,LARD_test_synth,EDDV_09L_35,EDDV,09L,,,,2020-07-01 12:01:01,1.55,1.55,506.29,0.57,2.78,93.49778175904234,84.82786700639575,2.953806041501868,1225,1118,1250,1118,1246,1214,1299,1215,300.0,EDDV_09L_35_08.jpeg,True
